[
  {
    "id": 1,
    "name_en": "Morocco - Canary Islands 2025",
    "name_pt": "Marrocos - Ilhas Canárias 2025",
    "name_es": "Marruecos - Islas Canarias 2025",
    "year": 2025,
    "color": "#209814",
    "region": "Africa",
    "stops": [
      {
        "name": "Madrid, Spain",
        "country": "Spain",
        "lat": 40.43489,
        "lng": -3.67824,
        "date": "12Dec2025"
      },
      {
        "name": "Málaga, Spain",
        "country": "Spain",
        "lat": 36.70974,
        "lng": -4.46201,
        "date": "13Dec2025"
      },
      {
        "name": "Torremolinos, Spain",
        "country": "Spain",
        "lat": 36.62198,
        "lng": -4.49994,
        "date": "13Dec2025"
      },
      {
        "name": "Benalmádena, Spain",
        "country": "Spain",
        "lat": 36.59603,
        "lng": -4.56888,
        "date": "13Dec2025"
      },
      {
        "name": "Fuengirola, Spain",
        "country": "Spain",
        "lat": 36.54406,
        "lng": -4.62775,
        "date": "13Dec2025"
      },
      {
        "name": "Marbella, Spain",
        "country": "Spain",
        "lat": 36.49809,
        "lng": -4.95712,
        "date": "13Dec2025"
      },
      {
        "name": "Puerto Banús, Spain",
        "country": "Spain",
        "lat": 36.48886,
        "lng": -4.95474,
        "date": "13Dec2025"
      },
      {
        "name": "Estepona, Spain",
        "country": "Spain",
        "lat": 36.42827,
        "lng": -5.14835,
        "date": "13Dec2025"
      },
      {
        "name": "Málaga, Spain",
        "country": "Spain",
        "lat": 36.70974,
        "lng": -4.46201,
        "date": "14Dec2025"
      },
      {
        "name": "Tangier, Morocco",
        "country": "Morocco",
        "lat": 35.75894,
        "lng": -5.82937,
        "date": "16Dec2025"
      },
      {
        "name": "Tétouan, Morocco",
        "country": "Morocco",
        "lat": 35.57158,
        "lng": -5.36837,
        "date": "17Dec2025"
      },
      {
        "name": "Chefchaouen, Morocco",
        "country": "Morocco",
        "lat": 35.16756,
        "lng": -5.26726,
        "date": "18Dec2025"
      },
      {
        "name": "Fès-Meknès Region, Morocco",
        "country": "Morocco",
        "lat": 33.91234,
        "lng": -4.75711,
        "date": "20Dec2025"
      },
      {
        "name": "Meknès, Morocco",
        "country": "Morocco",
        "lat": 33.89352,
        "lng": -5.54727,
        "date": "21Dec2025"
      },
      {
        "name": "Volubilis, Morocco",
        "country": "Morocco",
        "lat": 34.0708,
        "lng": -5.5528,
        "date": "21Dec2025"
      },
      {
        "name": "Meknès, Morocco",
        "country": "Morocco",
        "lat": 33.89352,
        "lng": -5.54727,
        "date": "21Dec2025"
      },
      {
        "name": "Rabat, Morocco",
        "country": "Morocco",
        "lat": 34.02,
        "lng": -6.84,
        "date": "24Dec2025"
      },
      {
        "name": "Agadir, Morocco",
        "country": "Morocco",
        "lat": 30.43999,
        "lng": -9.62004,
        "date": "26Dec2025"
      },
      {
        "name": "Playa de Las Americas, Spain",
        "country": "Spain",
        "lat": 28.06403,
        "lng": -16.73012,
        "date": "26Dec2025"
      },
      {
        "name": "Garachico, Spain",
        "country": "Spain",
        "lat": 28.37282,
        "lng": -16.76256,
        "date": "26Dec2025"
      },
      {
        "name": "Puerto de la Cruz, Spain",
        "country": "Spain",
        "lat": 28.41043,
        "lng": -16.54646,
        "date": "28Dec2025"
      },
      {
        "name": "Parque Nacional del Teide, Spain",
        "country": "Spain",
        "lat": 28.24904,
        "lng": -16.63608,
        "date": "27Dec2025"
      },
      {
        "name": "Santa Cruz de Tenerife, Spain",
        "country": "Spain",
        "lat": 28.46981,
        "lng": -16.25486,
        "date": "29Dec2025"
      },
      {
        "name": "Playa de las Teresitas",
        "country": "",
        "lat": 28.50879,
        "lng": -16.18492,
        "date": "29Dec2025"
      },
      {
        "name": "Santa Cruz de Tenerife, Spain",
        "country": "Spain",
        "lat": 28.46981,
        "lng": -16.25486,
        "date": "30Dec2025"
      },
      {
        "name": "Las Palmas de Gran Canaria, Spain",
        "country": "Spain",
        "lat": 28.11578,
        "lng": -15.43915,
        "date": "01Jan2026"
      },
      {
        "name": "Maspalomas, Spain",
        "country": "Spain",
        "lat": 27.75958,
        "lng": -15.5969,
        "date": "01Jan2026"
      },
      {
        "name": "Playa del Inglés, Spain",
        "country": "Spain",
        "lat": 27.7567,
        "lng": -15.5787,
        "date": "01Jan2026"
      },
      {
        "name": "Las Palmas de Gran Canaria, Spain",
        "country": "Spain",
        "lat": 28.11578,
        "lng": -15.43915,
        "date": "01Jan2026"
      },
      {
        "name": "Puerto de Mogán, Spain",
        "country": "Spain",
        "lat": 27.81678,
        "lng": -15.76392,
        "date": "25Jan2026"
      },
      {
        "name": "Puerto Rico, Spain",
        "country": "Spain",
        "lat": 27.78943,
        "lng": -15.71045,
        "date": "25Jan2026"
      },
      {
        "name": "Playa de Arguineguín, Spain",
        "country": "Spain",
        "lat": 27.75632,
        "lng": -15.68108,
        "date": "25Jan2026"
      },
      {
        "name": "Las Palmas de Gran Canaria, Spain",
        "country": "Spain",
        "lat": 28.11578,
        "lng": -15.43915,
        "date": "07Feb2026"
      },
      {
        "name": "Agaete, Spain",
        "country": "Spain",
        "lat": 28.10297,
        "lng": -15.70614,
        "date": "07Feb2026"
      },
      {
        "name": "Gáldar, Spain",
        "country": "Spain",
        "lat": 28.10739,
        "lng": -15.5627,
        "date": "07Feb2026"
      },
      {
        "name": "Las Palmas de Gran Canaria, Spain",
        "country": "Spain",
        "lat": 28.11578,
        "lng": -15.43915,
        "date": "16Feb2026"
      },
      {
        "name": "Puerto del Rosario, Spain",
        "country": "Spain",
        "lat": 28.50165,
        "lng": -13.86884,
        "date": "16Feb2026"
      },
      {
        "name": "Morro Jable, Spain",
        "country": "Spain",
        "lat": 28.04862,
        "lng": -14.36243,
        "date": "16Feb2026"
      },
      {
        "name": "Corralejo, Spain",
        "country": "Spain",
        "lat": 28.73079,
        "lng": -13.86749,
        "date": "17Feb2026"
      },
      {
        "name": "El Cotillo, Spain",
        "country": "Spain",
        "lat": 28.68272,
        "lng": -14.00993,
        "date": "17Feb2026"
      },
      {
        "name": "Corralejo, Spain",
        "country": "Spain",
        "lat": 28.73079,
        "lng": -13.86749,
        "date": "18Feb2026"
      },
      {
        "name": "Playa Blanca, Spain",
        "country": "Spain",
        "lat": 28.86426,
        "lng": -13.82814,
        "date": "18Feb2026"
      },
      {
        "name": "Puerto del Carmen, Spain",
        "country": "Spain",
        "lat": 28.92313,
        "lng": -13.66579,
        "date": "18Feb2026"
      },
      {
        "name": "Playa de las Cucharas, Spain",
        "country": "Spain",
        "lat": 28.999,
        "lng": -13.48767,
        "date": "18Feb2026"
      },
      {
        "name": "Arrecife, Spain",
        "country": "Spain",
        "lat": 28.96461,
        "lng": -13.55256,
        "date": "19Feb2026"
      },
      {
        "name": "Cueva de los Verdes, Spain",
        "country": "Spain",
        "lat": 29.16042,
        "lng": -13.43936,
        "date": "19Feb2026"
      },
      {
        "name": "Jameos del Agua, Spain",
        "country": "Spain",
        "lat": 29.15728,
        "lng": -13.4315,
        "date": "19Feb2026"
      },
      {
        "name": "Mirador de Guinate, Spain",
        "country": "Spain",
        "lat": 29.18478,
        "lng": -13.50115,
        "date": "19Feb2026"
      },
      {
        "name": "Teguise, Spain",
        "country": "Spain",
        "lat": 29.05942,
        "lng": -13.56055,
        "date": "19Feb2026"
      },
      {
        "name": "Parque Nacional de Timanfaya, Spain",
        "country": "Spain",
        "lat": 28.99422,
        "lng": -13.73007,
        "date": "19Feb2026"
      },
      {
        "name": "El Golfo, Spain",
        "country": "Spain",
        "lat": 28.9816,
        "lng": -13.83127,
        "date": "19Feb2026"
      },
      {
        "name": "Arrecife, Spain",
        "country": "Spain",
        "lat": 28.96461,
        "lng": -13.55256,
        "date": "20Feb2026"
      },
      {
        "name": "Las Palmas de Gran Canaria, Spain",
        "country": "Spain",
        "lat": 28.11578,
        "lng": -15.43915,
        "date": "02Mar2026"
      },
      {
        "name": "Madrid, Spain",
        "country": "Spain",
        "lat": 40.43489,
        "lng": -3.67824,
        "date": "02Mar2026"
      }
    ],
    "date_from": "03 Dec 2025",
    "date_to": "03 Mar 2026",
    "days": 91
  },
  {
    "id": 2,
    "name_en": "Central America 2025",
    "name_pt": "Centroamérica 2025",
    "name_es": "Centroamérica 2025",
    "year": 2025,
    "color": "#585858",
    "region": "Americas",
    "stops": [
      {
        "name": "San José, Costa Rica",
        "country": "Costa Rica",
        "lat": 9.93333,
        "lng": -84.08333,
        "date": "29Jun2025"
      },
      {
        "name": "Quepos, Costa Rica",
        "country": "Costa Rica",
        "lat": 9.43191,
        "lng": -84.16214,
        "date": "30Jun2025"
      },
      {
        "name": "San José, Costa Rica",
        "country": "Costa Rica",
        "lat": 9.93333,
        "lng": -84.08333,
        "date": "30Jun2025"
      },
      {
        "name": "Alajuela, Costa Rica",
        "country": "Costa Rica",
        "lat": 10.01667,
        "lng": -84.21667,
        "date": "01Jul2025"
      },
      {
        "name": "Managua, Nicaragua",
        "country": "Nicaragua",
        "lat": 12.13282,
        "lng": -86.2504,
        "date": "01Jul2025"
      },
      {
        "name": "Masaya, Nicaragua",
        "country": "Nicaragua",
        "lat": 11.97444,
        "lng": -86.09417,
        "date": "01Jul2025"
      },
      {
        "name": "Apoyo Lagoon Natural Reserve, Nicaragua",
        "country": "Nicaragua",
        "lat": 11.922,
        "lng": -86.029,
        "date": "01Jul2025"
      },
      {
        "name": "Granada, Nicaragua",
        "country": "Nicaragua",
        "lat": 11.93333,
        "lng": -85.95,
        "date": "02Jul2025"
      },
      {
        "name": "León, Nicaragua",
        "country": "Nicaragua",
        "lat": 12.43787,
        "lng": -86.87804,
        "date": "02Jul2025"
      },
      {
        "name": "Managua, Nicaragua",
        "country": "Nicaragua",
        "lat": 12.13282,
        "lng": -86.2504,
        "date": "03Jul2025"
      },
      {
        "name": "San Salvador, El Salvador",
        "country": "El Salvador",
        "lat": 13.70342,
        "lng": -89.20733,
        "date": "04Jul2025"
      },
      {
        "name": "La Libertad, El Salvador",
        "country": "El Salvador",
        "lat": 13.48833,
        "lng": -89.32222,
        "date": "04Jul2025"
      },
      {
        "name": "El Tunco, El Salvador",
        "country": "El Salvador",
        "lat": 13.49483,
        "lng": -89.38286,
        "date": "04Jul2025"
      },
      {
        "name": "El Sunzal, El Salvador",
        "country": "El Salvador",
        "lat": 13.5,
        "lng": -89.38333,
        "date": "04Jul2025"
      },
      {
        "name": "Playa El Zonte, El Salvador",
        "country": "El Salvador",
        "lat": 13.495,
        "lng": -89.44,
        "date": "04Jul2025"
      },
      {
        "name": "Sonsonate, El Salvador",
        "country": "El Salvador",
        "lat": 13.71889,
        "lng": -89.72417,
        "date": "04Jul2025"
      },
      {
        "name": "Nahuizalco, El Salvador",
        "country": "El Salvador",
        "lat": 13.77922,
        "lng": -89.73729,
        "date": "04Jul2025"
      },
      {
        "name": "Juayúa, El Salvador",
        "country": "El Salvador",
        "lat": 13.84323,
        "lng": -89.74647,
        "date": "04Jul2025"
      },
      {
        "name": "Santa Ana, El Salvador",
        "country": "El Salvador",
        "lat": 13.99417,
        "lng": -89.55972,
        "date": "04Jul2025"
      },
      {
        "name": "Coatepeque, El Salvador",
        "country": "El Salvador",
        "lat": 13.92545,
        "lng": -89.50427,
        "date": "04Jul2025"
      },
      {
        "name": "San Salvador, El Salvador",
        "country": "El Salvador",
        "lat": 13.70342,
        "lng": -89.20733,
        "date": "05Jul2025"
      },
      {
        "name": "El Boquerón National Park, El Salvador",
        "country": "El Salvador",
        "lat": 13.73333,
        "lng": -89.28333,
        "date": "05Jul2025"
      },
      {
        "name": "Joya de Cerén, El Salvador",
        "country": "El Salvador",
        "lat": 13.82347,
        "lng": -89.36031,
        "date": "05Jul2025"
      },
      {
        "name": "San Salvador, El Salvador",
        "country": "El Salvador",
        "lat": 13.70342,
        "lng": -89.20733,
        "date": "06Jul2025"
      },
      {
        "name": "Guatemala City, Guatemala",
        "country": "Guatemala",
        "lat": 14.6248,
        "lng": -90.53282,
        "date": "06Jul2025"
      },
      {
        "name": "Antigua, Guatemala",
        "country": "Guatemala",
        "lat": 14.55341,
        "lng": -90.73525,
        "date": "08Jul2025"
      },
      {
        "name": "San Pedro La Laguna, Guatemala",
        "country": "Guatemala",
        "lat": 14.6916,
        "lng": -91.27201,
        "date": "08Jul2025"
      },
      {
        "name": "San Juan La Laguna, Guatemala",
        "country": "Guatemala",
        "lat": 14.6945,
        "lng": -91.28668,
        "date": "08Jul2025"
      },
      {
        "name": "San Marcos La Laguna, Guatemala",
        "country": "Guatemala",
        "lat": 14.7251,
        "lng": -91.25926,
        "date": "08Jul2025"
      },
      {
        "name": "San Pedro La Laguna, Guatemala",
        "country": "Guatemala",
        "lat": 14.6916,
        "lng": -91.27201,
        "date": "09Jul2025"
      },
      {
        "name": "Santiago Atitlán, Guatemala",
        "country": "Guatemala",
        "lat": 14.63823,
        "lng": -91.22901,
        "date": "09Jul2025"
      },
      {
        "name": "Panajachel, Guatemala",
        "country": "Guatemala",
        "lat": 14.74217,
        "lng": -91.15598,
        "date": "09Jul2025"
      },
      {
        "name": "Guatemala City, Guatemala",
        "country": "Guatemala",
        "lat": 14.6248,
        "lng": -90.53282,
        "date": "10Jul2025"
      },
      {
        "name": "Flores, Guatemala",
        "country": "Guatemala",
        "lat": 16.92258,
        "lng": -89.89941,
        "date": "10Jul2025"
      },
      {
        "name": "Tikal, Guatemala",
        "country": "Guatemala",
        "lat": 17.22205,
        "lng": -89.62354,
        "date": "10Jul2025"
      },
      {
        "name": "Flores, Guatemala",
        "country": "Guatemala",
        "lat": 16.92258,
        "lng": -89.89941,
        "date": "11Jul2025"
      },
      {
        "name": "Belize City, Belize",
        "country": "Belize",
        "lat": 17.49952,
        "lng": -88.19756,
        "date": "11Jul2025"
      },
      {
        "name": "San Pedro, Belize",
        "country": "Belize",
        "lat": 17.91598,
        "lng": -87.9659,
        "date": "13Jul2025"
      },
      {
        "name": "Belize City, Belize",
        "country": "Belize",
        "lat": 17.50077,
        "lng": -88.1918,
        "date": "14Jul2025"
      },
      {
        "name": "San Pedro Sula, Honduras",
        "country": "Honduras",
        "lat": 15.50417,
        "lng": -88.025,
        "date": "14Jul2025"
      },
      {
        "name": "Copán Ruinas, Honduras",
        "country": "Honduras",
        "lat": 14.83936,
        "lng": -89.15583,
        "date": "15Jul2025"
      },
      {
        "name": "San Pedro Sula, Honduras",
        "country": "Honduras",
        "lat": 15.50417,
        "lng": -88.025,
        "date": "15Jul2025"
      },
      {
        "name": "San Salvador, El Salvador",
        "country": "El Salvador",
        "lat": 13.70342,
        "lng": -89.20733,
        "date": "15Jul2025"
      },
      {
        "name": "Bogotá, Colombia",
        "country": "Colombia",
        "lat": 4.60971,
        "lng": -74.08175,
        "date": "18Jul2025"
      },
      {
        "name": "Medellín, Colombia",
        "country": "Colombia",
        "lat": 6.25184,
        "lng": -75.56359,
        "date": "20Jul2025"
      },
      {
        "name": "Oranjestad, Aruba",
        "country": "Aruba",
        "lat": 12.52398,
        "lng": -70.02703,
        "date": "22Jul2025"
      },
      {
        "name": "Willemstad, Curaçao",
        "country": "Curaçao",
        "lat": 12.1084,
        "lng": -68.93354,
        "date": "24Jul2025"
      },
      {
        "name": "Bogotá, Colombia",
        "country": "Colombia",
        "lat": 4.60971,
        "lng": -74.08175,
        "date": "24Jul2025"
      },
      {
        "name": "Cali, Colombia",
        "country": "Colombia",
        "lat": 3.43722,
        "lng": -76.5225,
        "date": "25Jul2025"
      },
      {
        "name": "Cartagena, Colombia",
        "country": "Colombia",
        "lat": 10.39972,
        "lng": -75.51444,
        "date": "29Jul2025"
      },
      {
        "name": "Bogotá, Colombia",
        "country": "Colombia",
        "lat": 4.60971,
        "lng": -74.08175,
        "date": "29Jul2025"
      },
      {
        "name": "Quito, Ecuador",
        "country": "Ecuador",
        "lat": -0.22985,
        "lng": -78.52495,
        "date": "30Jul2025"
      },
      {
        "name": "Baltra Island, Ecuador",
        "country": "Ecuador",
        "lat": -0.45859,
        "lng": -90.27493,
        "date": "30Jul2025"
      },
      {
        "name": "Puerto Ayora, Ecuador",
        "country": "Ecuador",
        "lat": -0.74717,
        "lng": -90.31342,
        "date": "02Aug2025"
      },
      {
        "name": "Baltra Island, Ecuador",
        "country": "Ecuador",
        "lat": -0.45859,
        "lng": -90.27493,
        "date": "02Aug2025"
      },
      {
        "name": "Guayaquil Airport (GYE), Ecuador",
        "country": "Ecuador",
        "lat": -2.14814,
        "lng": -79.88453,
        "date": "02Aug2025"
      },
      {
        "name": "Quito, Ecuador",
        "country": "Ecuador",
        "lat": -0.22985,
        "lng": -78.52495,
        "date": "03Aug2025"
      },
      {
        "name": "San José, Costa Rica",
        "country": "Costa Rica",
        "lat": 9.93333,
        "lng": -84.08333,
        "date": "03Aug2025"
      },
      {
        "name": "La Fortuna, Costa Rica",
        "country": "Costa Rica",
        "lat": 10.47168,
        "lng": -84.64443,
        "date": "05Aug2025"
      },
      {
        "name": "San José, Costa Rica",
        "country": "Costa Rica",
        "lat": 9.93333,
        "lng": -84.08333,
        "date": "05Aug2025"
      }
    ],
    "date_from": "28 Jun 2025",
    "date_to": "06 Aug 2025",
    "days": 40
  },
  {
    "id": 3,
    "name_en": "Rest of Europe 2024",
    "name_pt": "Resto de Europa 2024",
    "name_es": "Resto de Europa 2024",
    "year": 2024,
    "color": "#d99f13",
    "region": "Europe",
    "stops": [
      {
        "name": "Frankfurt Airport (FRA), Germany",
        "country": "Germany",
        "lat": 50.05143,
        "lng": 8.5714,
        "date": "17Jun2024"
      },
      {
        "name": "Frankfurt am Main, Germany",
        "country": "Germany",
        "lat": 50.11552,
        "lng": 8.68417,
        "date": "17Jun2024"
      },
      {
        "name": "London Heathrow Airport (LHR), England",
        "country": "England",
        "lat": 51.47034,
        "lng": -0.45342,
        "date": "17Jun2024"
      },
      {
        "name": "Oxford, England",
        "country": "England",
        "lat": 51.75222,
        "lng": -1.25596,
        "date": "18Jun2024"
      },
      {
        "name": "Bristol, England",
        "country": "England",
        "lat": 51.45523,
        "lng": -2.59665,
        "date": "19Jun2024"
      },
      {
        "name": "Wells, England",
        "country": "England",
        "lat": 51.20945,
        "lng": -2.64512,
        "date": "19Jun2024"
      },
      {
        "name": "Bristol, England",
        "country": "England",
        "lat": 51.45523,
        "lng": -2.59665,
        "date": "19Jun2024"
      },
      {
        "name": "Cardiff, Wales",
        "country": "Wales",
        "lat": 51.48,
        "lng": -3.18,
        "date": "20Jun2024"
      },
      {
        "name": "Bristol Airport (BRS), England",
        "country": "England",
        "lat": 51.38665,
        "lng": -2.71165,
        "date": "20Jun2024"
      },
      {
        "name": "Dublin, Ireland",
        "country": "Ireland",
        "lat": 53.33306,
        "lng": -6.24889,
        "date": "22Jun2024"
      },
      {
        "name": "Kilkenny, Ireland",
        "country": "Ireland",
        "lat": 52.65417,
        "lng": -7.25222,
        "date": "22Jun2024"
      },
      {
        "name": "Cork, Ireland",
        "country": "Ireland",
        "lat": 51.89797,
        "lng": -8.47061,
        "date": "23Jun2024"
      },
      {
        "name": "Kinsale, Ireland",
        "country": "Ireland",
        "lat": 51.70573,
        "lng": -8.52298,
        "date": "23Jun2024"
      },
      {
        "name": "Cork Airport (ORK), Ireland",
        "country": "Ireland",
        "lat": 51.84892,
        "lng": -8.48921,
        "date": "23Jun2024"
      },
      {
        "name": "Manchester, England",
        "country": "England",
        "lat": 53.48095,
        "lng": -2.23743,
        "date": "24Jun2024"
      },
      {
        "name": "Liverpool, England",
        "country": "England",
        "lat": 53.41058,
        "lng": -2.97794,
        "date": "25Jun2024"
      },
      {
        "name": "Chester, England",
        "country": "England",
        "lat": 53.1905,
        "lng": -2.89189,
        "date": "25Jun2024"
      },
      {
        "name": "Liverpool, England",
        "country": "England",
        "lat": 53.41058,
        "lng": -2.97794,
        "date": "26Jun2024"
      },
      {
        "name": "Shannon Airport (SNN), Ireland",
        "country": "Ireland",
        "lat": 52.69281,
        "lng": -8.9214,
        "date": "26Jun2024"
      },
      {
        "name": "Ennis, Ireland",
        "country": "Ireland",
        "lat": 52.84361,
        "lng": -8.98639,
        "date": "26Jun2024"
      },
      {
        "name": "Burren and Cliffs of Moher Geopark, Ireland",
        "country": "Ireland",
        "lat": 52.97216,
        "lng": -9.42853,
        "date": "26Jun2024"
      },
      {
        "name": "Galway, Ireland",
        "country": "Ireland",
        "lat": 53.27245,
        "lng": -9.05095,
        "date": "27Jun2024"
      },
      {
        "name": "Dublin, Ireland",
        "country": "Ireland",
        "lat": 53.33306,
        "lng": -6.24889,
        "date": "28Jun2024"
      },
      {
        "name": "Belfast, Northern Ireland",
        "country": "Northern Ireland",
        "lat": 54.59682,
        "lng": -5.92541,
        "date": "30Jun2024"
      },
      {
        "name": "Carrickfergus, Northern Ireland",
        "country": "Northern Ireland",
        "lat": 54.7158,
        "lng": -5.8058,
        "date": "30Jun2024"
      },
      {
        "name": "Carnlough, Northern Ireland",
        "country": "Northern Ireland",
        "lat": 54.99292,
        "lng": -5.98996,
        "date": "30Jun2024"
      },
      {
        "name": "Cushendall, Northern Ireland",
        "country": "Northern Ireland",
        "lat": 55.08082,
        "lng": -6.06406,
        "date": "30Jun2024"
      },
      {
        "name": "Ballycastle, Northern Ireland",
        "country": "Northern Ireland",
        "lat": 55.20069,
        "lng": -6.25028,
        "date": "30Jun2024"
      },
      {
        "name": "Giant's Causeway, Northern Ireland",
        "country": "Northern Ireland",
        "lat": 55.23225,
        "lng": -6.5154,
        "date": "30Jun2024"
      },
      {
        "name": "Dunluce Castle, Northern Ireland",
        "country": "Northern Ireland",
        "lat": 55.2,
        "lng": -6.58333,
        "date": "30Jun2024"
      },
      {
        "name": "Old Bushmills Distillery, Northern Ireland",
        "country": "Northern Ireland",
        "lat": 55.20178,
        "lng": -6.52073,
        "date": "30Jun2024"
      },
      {
        "name": "Thornfield Farm Luxury Glamping Pods, Northern Ireland",
        "country": "Northern Ireland",
        "lat": 55.12912,
        "lng": -6.40349,
        "date": "30Jun2024"
      },
      {
        "name": "Belfast, Northern Ireland",
        "country": "Northern Ireland",
        "lat": 54.59682,
        "lng": -5.92541,
        "date": "01Jul2024"
      },
      {
        "name": "Glasgow, Scotland",
        "country": "Scotland",
        "lat": 55.86515,
        "lng": -4.25763,
        "date": "02Jul2024"
      },
      {
        "name": "Edinburgh, Scotland",
        "country": "Scotland",
        "lat": 55.95206,
        "lng": -3.19648,
        "date": "03Jul2024"
      },
      {
        "name": "Reykjavik Keflavik Nas Airport (KEF), Iceland",
        "country": "Iceland",
        "lat": 63.99644,
        "lng": -22.62445,
        "date": "03Jul2024"
      },
      {
        "name": "Reykjavík, Iceland",
        "country": "Iceland",
        "lat": 64.13548,
        "lng": -21.89541,
        "date": "03Jul2024"
      },
      {
        "name": "Kerið, Iceland",
        "country": "Iceland",
        "lat": 64.03981,
        "lng": -20.88511,
        "date": "03Jul2024"
      },
      {
        "name": "Gullfoss, Iceland",
        "country": "Iceland",
        "lat": 64.32732,
        "lng": -20.1191,
        "date": "03Jul2024"
      },
      {
        "name": "Geysir, Iceland",
        "country": "Iceland",
        "lat": 64.31384,
        "lng": -20.29951,
        "date": "03Jul2024"
      },
      {
        "name": "Laugarvatn, Iceland",
        "country": "Iceland",
        "lat": 64.21717,
        "lng": -20.73342,
        "date": "03Jul2024"
      },
      {
        "name": "Þingvellir, Iceland",
        "country": "Iceland",
        "lat": 64.25906,
        "lng": -21.1211,
        "date": "03Jul2024"
      },
      {
        "name": "Reykjavík, Iceland",
        "country": "Iceland",
        "lat": 64.13548,
        "lng": -21.89541,
        "date": "04Jul2024"
      },
      {
        "name": "Skógafoss, Iceland",
        "country": "Iceland",
        "lat": 63.53211,
        "lng": -19.51114,
        "date": "04Jul2024"
      },
      {
        "name": "Reynisfjara Columnes, Iceland",
        "country": "Iceland",
        "lat": 63.40273,
        "lng": -19.04181,
        "date": "04Jul2024"
      },
      {
        "name": "Vik, Iceland",
        "country": "Iceland",
        "lat": 63.41882,
        "lng": -19.00547,
        "date": "04Jul2024"
      },
      {
        "name": "Sólheimajökull, Iceland",
        "country": "Iceland",
        "lat": 63.55,
        "lng": -19.3,
        "date": "04Jul2024"
      },
      {
        "name": "Seljalandsfoss, Iceland",
        "country": "Iceland",
        "lat": 63.61604,
        "lng": -19.99403,
        "date": "04Jul2024"
      },
      {
        "name": "Reykjavík, Iceland",
        "country": "Iceland",
        "lat": 64.13548,
        "lng": -21.89541,
        "date": "05Jul2024"
      },
      {
        "name": "Oslo Airport (OSL), Norway",
        "country": "Norway",
        "lat": 60.19279,
        "lng": 11.09765,
        "date": "05Jul2024"
      },
      {
        "name": "Oslo, Norway",
        "country": "Norway",
        "lat": 59.91273,
        "lng": 10.74609,
        "date": "07Jul2024"
      },
      {
        "name": "Myrdal (Station), Norway",
        "country": "Norway",
        "lat": 60.73533,
        "lng": 7.12302,
        "date": "07Jul2024"
      },
      {
        "name": "Flåm Station, Norway",
        "country": "Norway",
        "lat": 60.86306,
        "lng": 7.11222,
        "date": "07Jul2024"
      },
      {
        "name": "Gudvangen, Norway",
        "country": "Norway",
        "lat": 60.87911,
        "lng": 6.83963,
        "date": "07Jul2024"
      },
      {
        "name": "Voss, Norway",
        "country": "Norway",
        "lat": 60.62869,
        "lng": 6.41474,
        "date": "07Jul2024"
      },
      {
        "name": "Bergen, Norway",
        "country": "Norway",
        "lat": 60.38807,
        "lng": 5.33185,
        "date": "08Jul2024"
      },
      {
        "name": "Oslo Airport (OSL), Norway",
        "country": "Norway",
        "lat": 60.19279,
        "lng": 11.09765,
        "date": "08Jul2024"
      },
      {
        "name": "Stockholm Airport (ARN), Sweden",
        "country": "Sweden",
        "lat": 59.65168,
        "lng": 17.93291,
        "date": "08Jul2024"
      },
      {
        "name": "Stockholm, Sweden",
        "country": "Sweden",
        "lat": 59.32938,
        "lng": 18.06871,
        "date": "10Jul2024"
      },
      {
        "name": "Gdansk Airport (GDN), Poland",
        "country": "Poland",
        "lat": 54.38073,
        "lng": 18.46845,
        "date": "10Jul2024"
      },
      {
        "name": "Gdańsk, Poland",
        "country": "Poland",
        "lat": 54.35227,
        "lng": 18.64912,
        "date": "11Jul2024"
      },
      {
        "name": "Sopot, Poland",
        "country": "Poland",
        "lat": 54.4418,
        "lng": 18.56003,
        "date": "11Jul2024"
      },
      {
        "name": "Gdańsk, Poland",
        "country": "Poland",
        "lat": 54.35227,
        "lng": 18.64912,
        "date": "12Jul2024"
      },
      {
        "name": "Malbork, Poland",
        "country": "Poland",
        "lat": 54.03591,
        "lng": 19.0266,
        "date": "12Jul2024"
      },
      {
        "name": "Iława, Poland",
        "country": "Poland",
        "lat": 53.59601,
        "lng": 19.56849,
        "date": "12Jul2024"
      },
      {
        "name": "Toruń, Poland",
        "country": "Poland",
        "lat": 53.01375,
        "lng": 18.59814,
        "date": "13Jul2024"
      },
      {
        "name": "Warsaw, Poland",
        "country": "Poland",
        "lat": 52.22977,
        "lng": 21.01178,
        "date": "14Jul2024"
      },
      {
        "name": "Wrocław, Poland",
        "country": "Poland",
        "lat": 51.1,
        "lng": 17.03333,
        "date": "15Jul2024"
      },
      {
        "name": "Charleroi Airport (CRL), Belgium",
        "country": "Belgium",
        "lat": 50.47032,
        "lng": 4.47135,
        "date": "15Jul2024"
      },
      {
        "name": "Ghent, Belgium",
        "country": "Belgium",
        "lat": 51.05,
        "lng": 3.71667,
        "date": "16Jul2024"
      },
      {
        "name": "Antwerp, Belgium",
        "country": "Belgium",
        "lat": 51.22047,
        "lng": 4.40026,
        "date": "16Jul2024"
      },
      {
        "name": "Brussels, Belgium",
        "country": "Belgium",
        "lat": 50.85045,
        "lng": 4.34878,
        "date": "17Jul2024"
      },
      {
        "name": "Charleroi Airport (CRL), Belgium",
        "country": "Belgium",
        "lat": 50.47032,
        "lng": 4.47135,
        "date": "17Jul2024"
      },
      {
        "name": "Timișoara, Romania",
        "country": "Romania",
        "lat": 45.75372,
        "lng": 21.22571,
        "date": "18Jul2024"
      },
      {
        "name": "Alba Iulia, Romania",
        "country": "Romania",
        "lat": 46.06667,
        "lng": 23.58333,
        "date": "18Jul2024"
      },
      {
        "name": "Sibiu, Romania",
        "country": "Romania",
        "lat": 45.8,
        "lng": 24.15,
        "date": "19Jul2024"
      },
      {
        "name": "Sighișoara, Romania",
        "country": "Romania",
        "lat": 46.22141,
        "lng": 24.79279,
        "date": "20Jul2024"
      },
      {
        "name": "Braşov, Romania",
        "country": "Romania",
        "lat": 45.64861,
        "lng": 25.60613,
        "date": "21Jul2024"
      },
      {
        "name": "Sinaia, Romania",
        "country": "Romania",
        "lat": 45.34551,
        "lng": 25.54798,
        "date": "21Jul2024"
      },
      {
        "name": "Peleș Castle, Romania",
        "country": "Romania",
        "lat": 45.35964,
        "lng": 25.54286,
        "date": "21Jul2024"
      },
      {
        "name": "Bucharest, Romania",
        "country": "Romania",
        "lat": 44.43225,
        "lng": 26.10626,
        "date": "23Jul2024"
      },
      {
        "name": "Constanța, Romania",
        "country": "Romania",
        "lat": 44.18073,
        "lng": 28.63432,
        "date": "23Jul2024"
      },
      {
        "name": "Mamaia, Romania",
        "country": "Romania",
        "lat": 44.29144,
        "lng": 28.61815,
        "date": "23Jul2024"
      },
      {
        "name": "Constanța, Romania",
        "country": "Romania",
        "lat": 44.18073,
        "lng": 28.63432,
        "date": "24Jul2024"
      },
      {
        "name": "Golden Sands Nature Park, Bulgaria",
        "country": "Bulgaria",
        "lat": 43.30416,
        "lng": 28.03611,
        "date": "24Jul2024"
      },
      {
        "name": "Varna, Bulgaria",
        "country": "Bulgaria",
        "lat": 43.21667,
        "lng": 27.91667,
        "date": "25Jul2024"
      },
      {
        "name": "Slanchev Bryag, Bulgaria",
        "country": "Bulgaria",
        "lat": 42.68925,
        "lng": 27.70608,
        "date": "25Jul2024"
      },
      {
        "name": "Burgas, Bulgaria",
        "country": "Bulgaria",
        "lat": 42.50606,
        "lng": 27.46781,
        "date": "25Jul2024"
      },
      {
        "name": "Burgas Airport (BOJ), Bulgaria",
        "country": "Bulgaria",
        "lat": 42.56626,
        "lng": 27.51803,
        "date": "25Jul2024"
      },
      {
        "name": "Sofia, Bulgaria",
        "country": "Bulgaria",
        "lat": 42.69751,
        "lng": 23.32415,
        "date": "26Jul2024"
      },
      {
        "name": "Plovdiv, Bulgaria",
        "country": "Bulgaria",
        "lat": 42.15,
        "lng": 24.75,
        "date": "27Jul2024"
      },
      {
        "name": "Sofia, Bulgaria",
        "country": "Bulgaria",
        "lat": 42.69751,
        "lng": 23.32415,
        "date": "28Jul2024"
      },
      {
        "name": "Skopje, North Macedonia",
        "country": "North Macedonia",
        "lat": 41.99646,
        "lng": 21.43141,
        "date": "29Jul2024"
      },
      {
        "name": "Ohrid, North Macedonia",
        "country": "North Macedonia",
        "lat": 41.11722,
        "lng": 20.80194,
        "date": "30Jul2024"
      },
      {
        "name": "Tirana, Albania",
        "country": "Albania",
        "lat": 41.3275,
        "lng": 19.81889,
        "date": "30Jul2024"
      },
      {
        "name": "Durrës, Albania",
        "country": "Albania",
        "lat": 41.32355,
        "lng": 19.45469,
        "date": "30Jul2024"
      },
      {
        "name": "Tirana, Albania",
        "country": "Albania",
        "lat": 41.3275,
        "lng": 19.81889,
        "date": "31Jul2024"
      },
      {
        "name": "Tirana Airport (TIA), Albania",
        "country": "Albania",
        "lat": 41.41904,
        "lng": 19.71325,
        "date": "31Jul2024"
      },
      {
        "name": "Brindisi Airport (BDS), Italy",
        "country": "Italy",
        "lat": 40.6579,
        "lng": 17.93834,
        "date": "31Jul2024"
      },
      {
        "name": "Brindisi, Italy",
        "country": "Italy",
        "lat": 40.63215,
        "lng": 17.93607,
        "date": "31Jul2024"
      },
      {
        "name": "Lecce, Italy",
        "country": "Italy",
        "lat": 40.35481,
        "lng": 18.17244,
        "date": "01Aug2024"
      },
      {
        "name": "Ostuni, Italy",
        "country": "Italy",
        "lat": 40.72913,
        "lng": 17.57675,
        "date": "01Aug2024"
      },
      {
        "name": "Martina Franca, Italy",
        "country": "Italy",
        "lat": 40.70355,
        "lng": 17.33814,
        "date": "01Aug2024"
      },
      {
        "name": "Locorotondo, Italy",
        "country": "Italy",
        "lat": 40.75523,
        "lng": 17.3265,
        "date": "01Aug2024"
      },
      {
        "name": "Alberobello, Italy",
        "country": "Italy",
        "lat": 40.78412,
        "lng": 17.2377,
        "date": "01Aug2024"
      },
      {
        "name": "Grotte di Castellana, Italy",
        "country": "Italy",
        "lat": 40.87541,
        "lng": 17.14897,
        "date": "02Aug2024"
      },
      {
        "name": "Matera, Italy",
        "country": "Italy",
        "lat": 40.66599,
        "lng": 16.60463,
        "date": "02Aug2024"
      },
      {
        "name": "Taranto, Italy",
        "country": "Italy",
        "lat": 40.46438,
        "lng": 17.24707,
        "date": "02Aug2024"
      },
      {
        "name": "Brindisi, Italy",
        "country": "Italy",
        "lat": 40.63215,
        "lng": 17.93607,
        "date": "03Aug2024"
      },
      {
        "name": "Monopoli, Italy",
        "country": "Italy",
        "lat": 40.94918,
        "lng": 17.29717,
        "date": "03Aug2024"
      },
      {
        "name": "Polignano a Mare, Italy",
        "country": "Italy",
        "lat": 40.99612,
        "lng": 17.21959,
        "date": "03Aug2024"
      },
      {
        "name": "Bari, Italy",
        "country": "Italy",
        "lat": 41.13016,
        "lng": 16.87024,
        "date": "04Aug2024"
      },
      {
        "name": "Trani, Italy",
        "country": "Italy",
        "lat": 41.27733,
        "lng": 16.41011,
        "date": "04Aug2024"
      },
      {
        "name": "Bari, Italy",
        "country": "Italy",
        "lat": 41.13016,
        "lng": 16.87024,
        "date": "04Aug2024"
      },
      {
        "name": "Bari Airport (BRI), Italy",
        "country": "Italy",
        "lat": 41.13407,
        "lng": 16.76425,
        "date": "04Aug2024"
      },
      {
        "name": "Malta Airport (MLA), Malta",
        "country": "Malta",
        "lat": 35.84978,
        "lng": 14.4954,
        "date": "04Aug2024"
      },
      {
        "name": "San Ġiljan, Malta",
        "country": "Malta",
        "lat": 35.91992,
        "lng": 14.48771,
        "date": "05Aug2024"
      },
      {
        "name": "Valletta, Malta",
        "country": "Malta",
        "lat": 35.89898,
        "lng": 14.51368,
        "date": "05Aug2024"
      },
      {
        "name": "Cospicua, Malta",
        "country": "Malta",
        "lat": 35.88556,
        "lng": 14.5275,
        "date": "05Aug2024"
      },
      {
        "name": "Birgu, Malta",
        "country": "Malta",
        "lat": 35.88811,
        "lng": 14.52384,
        "date": "05Aug2024"
      },
      {
        "name": "Kalkara, Malta",
        "country": "Malta",
        "lat": 35.88988,
        "lng": 14.52909,
        "date": "05Aug2024"
      },
      {
        "name": "San Ġiljan, Malta",
        "country": "Malta",
        "lat": 35.91992,
        "lng": 14.48771,
        "date": "06Aug2024"
      },
      {
        "name": "Ħal Saflieni Hypogeum, Malta",
        "country": "Malta",
        "lat": 35.86972,
        "lng": 14.50667,
        "date": "06Aug2024"
      },
      {
        "name": "Mdina, Malta",
        "country": "Malta",
        "lat": 35.88595,
        "lng": 14.40257,
        "date": "06Aug2024"
      },
      {
        "name": "Rabat, Malta",
        "country": "Malta",
        "lat": 35.88189,
        "lng": 14.39882,
        "date": "06Aug2024"
      },
      {
        "name": "Pembroke, Malta",
        "country": "Malta",
        "lat": 35.92813,
        "lng": 14.47957,
        "date": "06Aug2024"
      },
      {
        "name": "San Ġiljan, Malta",
        "country": "Malta",
        "lat": 35.91992,
        "lng": 14.48771,
        "date": "07Aug2024"
      },
      {
        "name": "Malta Airport (MLA), Malta",
        "country": "Malta",
        "lat": 35.84978,
        "lng": 14.4954,
        "date": "07Aug2024"
      },
      {
        "name": "Milan Parma Airport (PMF), Italy",
        "country": "Italy",
        "lat": 44.82321,
        "lng": 10.29492,
        "date": "07Aug2024"
      },
      {
        "name": "Parma, Italy",
        "country": "Italy",
        "lat": 44.79935,
        "lng": 10.32618,
        "date": "07Aug2024"
      },
      {
        "name": "Bologna, Italy",
        "country": "Italy",
        "lat": 44.49381,
        "lng": 11.33875,
        "date": "08Aug2024"
      },
      {
        "name": "Turin, Italy",
        "country": "Italy",
        "lat": 45.07049,
        "lng": 7.68682,
        "date": "09Aug2024"
      },
      {
        "name": "Aosta, Italy",
        "country": "Italy",
        "lat": 45.73764,
        "lng": 7.31722,
        "date": "09Aug2024"
      },
      {
        "name": "Courmayeur, Italy",
        "country": "Italy",
        "lat": 45.78742,
        "lng": 6.97306,
        "date": "09Aug2024"
      },
      {
        "name": "Chamonix, France",
        "country": "France",
        "lat": 45.92467,
        "lng": 6.87275,
        "date": "10Aug2024"
      },
      {
        "name": "Annecy, France",
        "country": "France",
        "lat": 45.90878,
        "lng": 6.12565,
        "date": "11Aug2024"
      },
      {
        "name": "Lyon, France",
        "country": "France",
        "lat": 45.74846,
        "lng": 4.84671,
        "date": "12Aug2024"
      },
      {
        "name": "Lyon Airport (LYS), France",
        "country": "France",
        "lat": 45.72071,
        "lng": 5.07824,
        "date": "12Aug2024"
      },
      {
        "name": "Toulouse Airport (TLS), France",
        "country": "France",
        "lat": 43.62942,
        "lng": 1.3747,
        "date": "12Aug2024"
      },
      {
        "name": "Toulouse, France",
        "country": "France",
        "lat": 43.60426,
        "lng": 1.44367,
        "date": "13Aug2024"
      },
      {
        "name": "Bordeaux, France",
        "country": "France",
        "lat": 44.84044,
        "lng": -0.5805,
        "date": "15Aug2024"
      },
      {
        "name": "Bordeaux Airport (BOD), France",
        "country": "France",
        "lat": 44.83038,
        "lng": -0.70098,
        "date": "15Aug2024"
      },
      {
        "name": "Palma Mallorca Airport (PMI), Spain",
        "country": "Spain",
        "lat": 39.54727,
        "lng": 2.72963,
        "date": "15Aug2024"
      },
      {
        "name": "Palma, Spain",
        "country": "Spain",
        "lat": 39.56939,
        "lng": 2.65024,
        "date": "16Aug2024"
      },
      {
        "name": "Ibiza Airport (IBZ), Spain",
        "country": "Spain",
        "lat": 38.8761,
        "lng": 1.36827,
        "date": "16Aug2024"
      },
      {
        "name": "Ibiza, Spain",
        "country": "Spain",
        "lat": 38.90883,
        "lng": 1.43296,
        "date": "17Aug2024"
      },
      {
        "name": "Lisbon Airport (LIS), Portugal",
        "country": "Portugal",
        "lat": 38.76988,
        "lng": -9.12824,
        "date": "17Aug2024"
      },
      {
        "name": "Lisbon, Portugal",
        "country": "Portugal",
        "lat": 38.71667,
        "lng": -9.13333,
        "date": "18Aug2024"
      },
      {
        "name": "Coimbra, Portugal",
        "country": "Portugal",
        "lat": 40.20564,
        "lng": -8.41955,
        "date": "19Aug2024"
      },
      {
        "name": "Porto, Portugal",
        "country": "Portugal",
        "lat": 41.14997,
        "lng": -8.61024,
        "date": "19Aug2024"
      },
      {
        "name": "Vila Nova de Gaia, Portugal",
        "country": "Portugal",
        "lat": 41.12401,
        "lng": -8.61241,
        "date": "19Aug2024"
      },
      {
        "name": "Porto, Portugal",
        "country": "Portugal",
        "lat": 41.14997,
        "lng": -8.61024,
        "date": "20Aug2024"
      },
      {
        "name": "Braga, Portugal",
        "country": "Portugal",
        "lat": 41.55032,
        "lng": -8.42005,
        "date": "20Aug2024"
      },
      {
        "name": "Valença, Portugal",
        "country": "Portugal",
        "lat": 42.02705,
        "lng": -8.64288,
        "date": "20Aug2024"
      },
      {
        "name": "Vigo, Spain",
        "country": "Spain",
        "lat": 42.24068,
        "lng": -8.72067,
        "date": "20Aug2024"
      },
      {
        "name": "Santiago de Compostela, Spain",
        "country": "Spain",
        "lat": 42.88045,
        "lng": -8.5463,
        "date": "21Aug2024"
      },
      {
        "name": "Santiago de Compostela Airport (SCQ), Spain",
        "country": "Spain",
        "lat": 42.89725,
        "lng": -8.42192,
        "date": "21Aug2024"
      },
      {
        "name": "London Gatwick Airport (LGW), England",
        "country": "England",
        "lat": 51.1565,
        "lng": -0.16145,
        "date": "21Aug2024"
      },
      {
        "name": "Brighton, England",
        "country": "England",
        "lat": 50.82838,
        "lng": -0.13947,
        "date": "22Aug2024"
      },
      {
        "name": "London, England",
        "country": "England",
        "lat": 51.50015,
        "lng": -0.12624,
        "date": "22Aug2024"
      },
      {
        "name": "London Heathrow Airport (LHR), England",
        "country": "England",
        "lat": 51.47034,
        "lng": -0.45342,
        "date": "22Aug2024"
      },
      {
        "name": "Frankfurt Airport (FRA), Germany",
        "country": "Germany",
        "lat": 50.05143,
        "lng": 8.5714,
        "date": "22Aug2024"
      }
    ],
    "date_from": "16 Jun 2024",
    "date_to": "24 Aug 2024",
    "days": 70
  },
  {
    "id": 4,
    "name_en": "Africa 2023",
    "name_pt": "África 2023",
    "name_es": "África 2023",
    "year": 2023,
    "color": "#2ad9dc",
    "region": "Africa",
    "stops": [
      {
        "name": "Johannesburg, South Africa",
        "country": "South Africa",
        "lat": -26.20227,
        "lng": 28.04363,
        "date": "05Dec2023"
      },
      {
        "name": "Pretoria, South Africa",
        "country": "South Africa",
        "lat": -25.74486,
        "lng": 28.18783,
        "date": "05Dec2023"
      },
      {
        "name": "Graskop, South Africa",
        "country": "South Africa",
        "lat": -24.93111,
        "lng": 30.84139,
        "date": "06Dec2023"
      },
      {
        "name": "Blyde River Canyon Nature Reserve, South Africa",
        "country": "South Africa",
        "lat": -24.6,
        "lng": 30.825,
        "date": "06Dec2023"
      },
      {
        "name": "Satara Rest Camp, South Africa",
        "country": "South Africa",
        "lat": -24.3937,
        "lng": 31.77756,
        "date": "08Dec2023"
      },
      {
        "name": "Skukuza Rest Camp, South Africa",
        "country": "South Africa",
        "lat": -24.99361,
        "lng": 31.59144,
        "date": "10Dec2023"
      },
      {
        "name": "Jeppe’s Reef, South Africa",
        "country": "South Africa",
        "lat": -25.72361,
        "lng": 31.47278,
        "date": "11Dec2023"
      },
      {
        "name": "Mbabane, Eswatini",
        "country": "Eswatini",
        "lat": -26.31667,
        "lng": 31.13333,
        "date": "10Dec2023"
      },
      {
        "name": "Mantenga Hillview, Eswatini",
        "country": "Eswatini",
        "lat": -26.43876,
        "lng": 31.18388,
        "date": "11Dec2023"
      },
      {
        "name": "Piet Retief, South Africa",
        "country": "South Africa",
        "lat": -27.00706,
        "lng": 30.81323,
        "date": "11Dec2023"
      },
      {
        "name": "Berghouse and Cottages, South Africa",
        "country": "South Africa",
        "lat": -28.63265,
        "lng": 29.07385,
        "date": "12Dec2023"
      },
      {
        "name": "Durban, South Africa",
        "country": "South Africa",
        "lat": -29.8579,
        "lng": 31.0292,
        "date": "14Dec2023"
      },
      {
        "name": "Umhlanga, South Africa",
        "country": "South Africa",
        "lat": -29.72528,
        "lng": 31.08583,
        "date": "14Dec2023"
      },
      {
        "name": "UShaka Marine World, South Africa",
        "country": "South Africa",
        "lat": -29.86621,
        "lng": 31.04487,
        "date": "14Dec2023"
      },
      {
        "name": "Cape Town, South Africa",
        "country": "South Africa",
        "lat": -33.92584,
        "lng": 18.42322,
        "date": "19Jan2024"
      },
      {
        "name": "Hout Bay, South Africa",
        "country": "South Africa",
        "lat": -34.04309,
        "lng": 18.35564,
        "date": "16Dec2023"
      },
      {
        "name": "Boulders Beach, South Africa",
        "country": "South Africa",
        "lat": -34.197,
        "lng": 18.451,
        "date": "16Dec2023"
      },
      {
        "name": "Kirstenbosch National Botanical Garden, South Africa",
        "country": "South Africa",
        "lat": -33.9875,
        "lng": 18.4325,
        "date": "17Dec2023"
      },
      {
        "name": "Bloubergstrand, South Africa",
        "country": "South Africa",
        "lat": -33.79734,
        "lng": 18.46102,
        "date": "17Dec2023"
      },
      {
        "name": "Johannesburg, South Africa",
        "country": "South Africa",
        "lat": -26.20227,
        "lng": 28.04363,
        "date": "19Dec2023"
      },
      {
        "name": "Victoria Falls, Zimbabwe",
        "country": "Zimbabwe",
        "lat": -17.93285,
        "lng": 25.83066,
        "date": "20Dec2023"
      },
      {
        "name": "Livingstone, Zambia",
        "country": "Zambia",
        "lat": -17.84175,
        "lng": 25.81661,
        "date": "21Dec2023"
      },
      {
        "name": "Lusaka, Zambia",
        "country": "Zambia",
        "lat": -15.40669,
        "lng": 28.28713,
        "date": "21Dec2023"
      },
      {
        "name": "Nairobi, Kenya",
        "country": "Kenya",
        "lat": -1.28333,
        "lng": 36.81667,
        "date": "22Dec2023"
      },
      {
        "name": "Dar es Salaam, Tanzania",
        "country": "Tanzania",
        "lat": -6.82349,
        "lng": 39.26951,
        "date": "23Dec2023"
      },
      {
        "name": "Zanzibar City, Tanzania",
        "country": "Tanzania",
        "lat": -6.16394,
        "lng": 39.19793,
        "date": "25Dec2023"
      },
      {
        "name": "Nungwi, Tanzania",
        "country": "Tanzania",
        "lat": -5.72723,
        "lng": 39.2992,
        "date": "24Dec2023"
      },
      {
        "name": "Matemwe, Tanzania",
        "country": "Tanzania",
        "lat": -5.87492,
        "lng": 39.35114,
        "date": "24Dec2023"
      },
      {
        "name": "Arusha, Tanzania",
        "country": "Tanzania",
        "lat": -3.36667,
        "lng": 36.68333,
        "date": "28Dec2023"
      },
      {
        "name": "Tarangire National Park, Tanzania",
        "country": "Tanzania",
        "lat": -4.0,
        "lng": 36.0,
        "date": "26Jan2024"
      },
      {
        "name": "Ngorongoro Conservation Area (Park), Tanzania",
        "country": "Tanzania",
        "lat": -3.21,
        "lng": 35.46,
        "date": "27Dec2023"
      },
      {
        "name": "Kilimanjaro, Tanzania",
        "country": "Tanzania",
        "lat": -3.07641,
        "lng": 37.354,
        "date": "28Dec2023"
      },
      {
        "name": "Kilimanjaro Airport (JRO), Tanzania",
        "country": "Tanzania",
        "lat": -3.42408,
        "lng": 37.06547,
        "date": "28Dec2023"
      },
      {
        "name": "Johannesburg, South Africa",
        "country": "South Africa",
        "lat": -26.20227,
        "lng": 28.04363,
        "date": "29Dec2023"
      }
    ],
    "date_from": "04 Dec 2023",
    "date_to": "29 Dec 2023",
    "days": 26
  },
  {
    "id": 5,
    "name_en": "New Zealand - Australia 2019",
    "name_pt": "Nova Zelândia - Austrália 2019",
    "name_es": "Nueva Zelanda - Australia 2019",
    "year": 2019,
    "color": "#0e8d54",
    "region": "Oceania",
    "stops": [
      {
        "name": "Auckland, New Zealand",
        "country": "New Zealand",
        "lat": -36.84853,
        "lng": 174.7635,
        "date": "20Dec2019"
      },
      {
        "name": "Queenstown, New Zealand",
        "country": "New Zealand",
        "lat": -45.03219,
        "lng": 168.661,
        "date": "22Dec2019"
      },
      {
        "name": "Milford Sound, New Zealand",
        "country": "New Zealand",
        "lat": -44.6683,
        "lng": 167.9272,
        "date": "21Dec2021"
      },
      {
        "name": "Wellington, New Zealand",
        "country": "New Zealand",
        "lat": -41.28664,
        "lng": 174.7756,
        "date": "24Dec2019"
      },
      {
        "name": "Queenstown, New Zealand",
        "country": "New Zealand",
        "lat": -45.03219,
        "lng": 168.661,
        "date": "24Dec2019"
      },
      {
        "name": "Melbourne, Australia",
        "country": "Australia",
        "lat": -37.814,
        "lng": 144.9633,
        "date": "29Dec2019"
      },
      {
        "name": "The Twelve Apostles, Australia",
        "country": "Australia",
        "lat": -38.66584,
        "lng": 143.1044,
        "date": "29Dec2019"
      },
      {
        "name": "Sydney, Australia",
        "country": "Australia",
        "lat": -33.86483,
        "lng": 151.2069,
        "date": "05Jan2020"
      },
      {
        "name": "Cairns, Australia",
        "country": "Australia",
        "lat": -16.92366,
        "lng": 145.7661,
        "date": "08Jan2020"
      },
      {
        "name": "Brisbane, Australia",
        "country": "Australia",
        "lat": -27.46794,
        "lng": 153.0281,
        "date": "10Jan2020"
      },
      {
        "name": "Surfers Paradise, Australia",
        "country": "Australia",
        "lat": -28.00274,
        "lng": 153.43,
        "date": "13Jan2020"
      },
      {
        "name": "Auckland, New Zealand",
        "country": "New Zealand",
        "lat": -36.84853,
        "lng": 174.7635,
        "date": "13Jan2020"
      },
      {
        "name": "Rotorua, New Zealand",
        "country": "New Zealand",
        "lat": -38.13874,
        "lng": 176.2452,
        "date": "15Jan2020"
      },
      {
        "name": "Hobbiton Movie Set, New Zealand",
        "country": "New Zealand",
        "lat": -37.8575,
        "lng": 175.6797,
        "date": "15Jan2020"
      },
      {
        "name": "Auckland, New Zealand",
        "country": "New Zealand",
        "lat": -36.84853,
        "lng": 174.7635,
        "date": "15Jan2020"
      }
    ],
    "date_from": "16 Dec 2019",
    "date_to": "16 Jan 2020",
    "days": 32
  },
  {
    "id": 6,
    "name_en": "China 2019",
    "name_pt": "China 2019",
    "name_es": "China 2019",
    "year": 2019,
    "color": "#ff1d1d",
    "region": "Asia",
    "stops": [
      {
        "name": "Shanghai, China",
        "country": "China",
        "lat": 31.22435,
        "lng": 121.47592,
        "date": "09Sep2019"
      },
      {
        "name": "Suzhou, China",
        "country": "China",
        "lat": 31.30408,
        "lng": 120.5954,
        "date": "10Sep2019"
      },
      {
        "name": "Nanjing, China",
        "country": "China",
        "lat": 32.06167,
        "lng": 118.7778,
        "date": "11Sep2019"
      },
      {
        "name": "Beijing, China",
        "country": "China",
        "lat": 39.90591,
        "lng": 116.3913,
        "date": "16Sep2019"
      },
      {
        "name": "Pingyao, China",
        "country": "China",
        "lat": 37.20379,
        "lng": 112.1771,
        "date": "17Sep2019"
      },
      {
        "name": "Xi'an, China",
        "country": "China",
        "lat": 34.26488,
        "lng": 108.94426,
        "date": "19Sep2019"
      },
      {
        "name": "Zhangjiajie, China",
        "country": "China",
        "lat": 29.12944,
        "lng": 110.4783,
        "date": "22Sep2019"
      },
      {
        "name": "Guilin, China",
        "country": "China",
        "lat": 25.26989,
        "lng": 110.28987,
        "date": "24Sep2019"
      },
      {
        "name": "Yangshuo, China",
        "country": "China",
        "lat": 24.78081,
        "lng": 110.4897,
        "date": "24Sep2019"
      },
      {
        "name": "Guangzhou, China",
        "country": "China",
        "lat": 23.11667,
        "lng": 113.25,
        "date": "26Sep2019"
      },
      {
        "name": "Huangshan, China",
        "country": "China",
        "lat": 29.71139,
        "lng": 118.3125,
        "date": "28Sep2019"
      },
      {
        "name": "Hangzhou, China",
        "country": "China",
        "lat": 30.27398,
        "lng": 120.17297,
        "date": "01Oct2019"
      },
      {
        "name": "Shanghai, China",
        "country": "China",
        "lat": 31.22435,
        "lng": 121.47592,
        "date": "01Oct2019"
      }
    ],
    "date_from": "02 Sep 2019",
    "date_to": "02 Oct 2019",
    "days": 31
  },
  {
    "id": 7,
    "name_en": "Great Britain 2019",
    "name_pt": "Grã Bretanha 2019",
    "name_es": "Gran Bretaña 2019",
    "year": 2019,
    "color": "#77118f",
    "region": "Europe",
    "stops": [
      {
        "name": "London, England",
        "country": "England",
        "lat": 51.50015,
        "lng": -0.12624,
        "date": "10Jun2019"
      },
      {
        "name": "York, England",
        "country": "England",
        "lat": 53.95763,
        "lng": -1.08271,
        "date": "11Jun2019"
      },
      {
        "name": "Edinburgh, Scotland",
        "country": "Scotland",
        "lat": 55.95206,
        "lng": -3.19648,
        "date": "12Jun2019"
      },
      {
        "name": "Stanstead, England",
        "country": "England",
        "lat": 52.10632,
        "lng": 0.69096,
        "date": "12Jun2019"
      },
      {
        "name": "Cambridge, England",
        "country": "England",
        "lat": 52.2,
        "lng": 0.11667,
        "date": "12Jun2019"
      },
      {
        "name": "London, England",
        "country": "England",
        "lat": 51.50015,
        "lng": -0.12624,
        "date": "13Jun2019"
      },
      {
        "name": "Windsor, England",
        "country": "England",
        "lat": 51.48333,
        "lng": -0.6,
        "date": "13Jun2019"
      },
      {
        "name": "Bath, England",
        "country": "England",
        "lat": 51.3751,
        "lng": -2.36172,
        "date": "13Jun2019"
      },
      {
        "name": "Stonehenge, England",
        "country": "England",
        "lat": 51.17889,
        "lng": -1.82611,
        "date": "13Jun2019"
      },
      {
        "name": "London, England",
        "country": "England",
        "lat": 51.50015,
        "lng": -0.12624,
        "date": "19Jun2019"
      }
    ],
    "date_from": "08 Jun 2019",
    "date_to": "20 Jun 2019",
    "days": 13
  },
  {
    "id": 8,
    "name_en": "Caribbean 2019",
    "name_pt": "Caribe 2019",
    "name_es": "Caribe 2019",
    "year": 2019,
    "color": "#e86213",
    "region": "Americas",
    "stops": [
      {
        "name": "Punta Cana, Dominican Republic",
        "country": "Dominican Republic",
        "lat": 18.58182,
        "lng": -68.40431,
        "date": "28Jan2019"
      },
      {
        "name": "La Romana, Dominican Republic",
        "country": "Dominican Republic",
        "lat": 18.42733,
        "lng": -68.97285,
        "date": "29Jan2019"
      },
      {
        "name": "Saint Kitts, Saint Kitts and Nevis",
        "country": "Saint Kitts and Nevis",
        "lat": 17.33333,
        "lng": -62.76,
        "date": "30Jan2019"
      },
      {
        "name": "St Johns, Antigua and Barbuda",
        "country": "Antigua and Barbuda",
        "lat": 17.12096,
        "lng": -61.84329,
        "date": "31Jan2019"
      },
      {
        "name": "Fort-de-France, Martinique",
        "country": "Martinique",
        "lat": 14.60365,
        "lng": -61.07418,
        "date": "01Feb2019"
      },
      {
        "name": "Pointe-à-Pitre, Guadeloupe",
        "country": "Guadeloupe",
        "lat": 16.24125,
        "lng": -61.53614,
        "date": "02Feb2019"
      },
      {
        "name": "Sint Maarten",
        "country": "",
        "lat": 18.04237,
        "lng": -63.05499,
        "date": "03Feb2019"
      },
      {
        "name": "La Romana, Dominican Republic",
        "country": "Dominican Republic",
        "lat": 18.42733,
        "lng": -68.97285,
        "date": "04Feb2019"
      },
      {
        "name": "Punta Cana, Dominican Republic",
        "country": "Dominican Republic",
        "lat": 18.58182,
        "lng": -68.40431,
        "date": "04Feb2019"
      }
    ],
    "date_from": "22 Jan 2019",
    "date_to": "05 Feb 2019",
    "days": 15
  },
  {
    "id": 9,
    "name_en": "France 2018",
    "name_pt": "França 2018",
    "name_es": "Francia 2018",
    "year": 2018,
    "color": "#16c979",
    "region": "Europe",
    "stops": [
      {
        "name": "Paris, France",
        "country": "France",
        "lat": 48.85666,
        "lng": 2.35204,
        "date": "12Oct2018"
      },
      {
        "name": "Fontainebleau, France",
        "country": "France",
        "lat": 48.40908,
        "lng": 2.70177,
        "date": "12Oct2018"
      },
      {
        "name": "Bourges, France",
        "country": "France",
        "lat": 47.08333,
        "lng": 2.4,
        "date": "13Oct2018"
      },
      {
        "name": "Orléans, France",
        "country": "France",
        "lat": 47.90289,
        "lng": 1.90389,
        "date": "14Oct2018"
      },
      {
        "name": "Château de Chambord, France",
        "country": "France",
        "lat": 47.61611,
        "lng": 1.51722,
        "date": "14Oct2018"
      },
      {
        "name": "Château de Cheverny, France",
        "country": "France",
        "lat": 47.50028,
        "lng": 1.45806,
        "date": "14Oct2018"
      },
      {
        "name": "Blois, France",
        "country": "France",
        "lat": 47.59432,
        "lng": 1.32912,
        "date": "15Oct2018"
      },
      {
        "name": "Chenonceaux, France",
        "country": "France",
        "lat": 47.33202,
        "lng": 1.07043,
        "date": "15Oct2018"
      },
      {
        "name": "Amboise, France",
        "country": "France",
        "lat": 47.41103,
        "lng": 0.9837,
        "date": "16Oct2018"
      },
      {
        "name": "Vouvray, France",
        "country": "France",
        "lat": 47.41367,
        "lng": 0.79984,
        "date": "16Oct2018"
      },
      {
        "name": "Château de Villandry, France",
        "country": "France",
        "lat": 47.34056,
        "lng": 0.51278,
        "date": "16Oct2018"
      },
      {
        "name": "Château d'Azay-le-Rideau, France",
        "country": "France",
        "lat": 47.26,
        "lng": 0.46692,
        "date": "16Oct2018"
      },
      {
        "name": "Château de Langeais, France",
        "country": "France",
        "lat": 47.3248,
        "lng": 0.4061,
        "date": "16Oct2018"
      },
      {
        "name": "Tours, France",
        "country": "France",
        "lat": 47.39484,
        "lng": 0.70398,
        "date": "17Oct2018"
      },
      {
        "name": "Château d'Ussé, France",
        "country": "France",
        "lat": 47.2498,
        "lng": 0.2912,
        "date": "17Oct2018"
      },
      {
        "name": "Chinon, France",
        "country": "France",
        "lat": 47.16672,
        "lng": 0.24021,
        "date": "17Oct2018"
      },
      {
        "name": "Fontevraud-l'Abbaye, France",
        "country": "France",
        "lat": 47.18172,
        "lng": 0.04957,
        "date": "17Oct2018"
      },
      {
        "name": "Chateau Le Prieure, France",
        "country": "France",
        "lat": 47.31026,
        "lng": -0.15729,
        "date": "18Oct2018"
      },
      {
        "name": "Saumur, France",
        "country": "France",
        "lat": 47.25931,
        "lng": -0.07808,
        "date": "18Oct2018"
      },
      {
        "name": "Château de Brissac, France",
        "country": "France",
        "lat": 47.35305,
        "lng": -0.44972,
        "date": "18Oct2018"
      },
      {
        "name": "Angers, France",
        "country": "France",
        "lat": 47.47156,
        "lng": -0.55202,
        "date": "19Oct2018"
      },
      {
        "name": "Château de Serrant, France",
        "country": "France",
        "lat": 47.41513,
        "lng": -0.74438,
        "date": "19Oct2018"
      },
      {
        "name": "Nantes, France",
        "country": "France",
        "lat": 47.21725,
        "lng": -1.55336,
        "date": "20Oct2018"
      },
      {
        "name": "Rennes, France",
        "country": "France",
        "lat": 48.11198,
        "lng": -1.67429,
        "date": "20Oct2018"
      },
      {
        "name": "Saint-Malo, France",
        "country": "France",
        "lat": 48.64738,
        "lng": -2.00877,
        "date": "21Oct2018"
      },
      {
        "name": "Le Mont-Saint-Michel, France",
        "country": "France",
        "lat": 48.63585,
        "lng": -1.51261,
        "date": "21Oct2018"
      },
      {
        "name": "Caen, France",
        "country": "France",
        "lat": 49.18585,
        "lng": -0.35912,
        "date": "21Oct2018"
      },
      {
        "name": "Deauville, France",
        "country": "France",
        "lat": 49.36,
        "lng": 0.07528,
        "date": "22Oct2018"
      },
      {
        "name": "Trouville-sur-Mer, France",
        "country": "France",
        "lat": 49.36833,
        "lng": 0.0825,
        "date": "21Oct2018"
      },
      {
        "name": "Honfleur, France",
        "country": "France",
        "lat": 49.41972,
        "lng": 0.23389,
        "date": "22Oct2018"
      },
      {
        "name": "Le Havre, France",
        "country": "France",
        "lat": 49.4938,
        "lng": 0.10767,
        "date": "22Oct2018"
      },
      {
        "name": "Rouen, France",
        "country": "France",
        "lat": 49.44313,
        "lng": 1.09932,
        "date": "23Oct2018"
      },
      {
        "name": "Château de Versailles, France",
        "country": "France",
        "lat": 48.80478,
        "lng": 2.12042,
        "date": "23Oct2018"
      },
      {
        "name": "Paris, France",
        "country": "France",
        "lat": 48.85666,
        "lng": 2.35204,
        "date": "26Oct2018"
      }
    ],
    "date_from": "11 Oct 2018",
    "date_to": "26 Oct 2018",
    "days": 16
  },
  {
    "id": 10,
    "name_en": "Barcelona - Andorra - Morocco 2018",
    "name_pt": "Barcelona - Andorra - Marrocos 2018",
    "name_es": "Barcelona - Andorra - Marruecos 2018",
    "year": 2018,
    "color": "#08494a",
    "region": "Europe",
    "stops": [
      {
        "name": "Casablanca, Morocco",
        "country": "Morocco",
        "lat": 33.58831,
        "lng": -7.61138,
        "date": "18Jan2018"
      },
      {
        "name": "Barcelona, Spain",
        "country": "Spain",
        "lat": 41.38533,
        "lng": 2.17282,
        "date": "19Jan2018"
      },
      {
        "name": "Olesa de Montserrat, Spain",
        "country": "Spain",
        "lat": 41.54372,
        "lng": 1.89407,
        "date": "19Jan2018"
      },
      {
        "name": "Soldeu, Andorra",
        "country": "Andorra",
        "lat": 42.57689,
        "lng": 1.66827,
        "date": "24Jan2018"
      },
      {
        "name": "El Tarter, Andorra",
        "country": "Andorra",
        "lat": 42.58033,
        "lng": 1.6497,
        "date": "21Jan2018"
      },
      {
        "name": "Canillo, Andorra",
        "country": "Andorra",
        "lat": 42.56683,
        "lng": 1.59777,
        "date": "21Jan2018"
      },
      {
        "name": "Encamp, Andorra",
        "country": "Andorra",
        "lat": 42.53598,
        "lng": 1.58368,
        "date": "21Jan2018"
      },
      {
        "name": "Andorra la Vella, Andorra",
        "country": "Andorra",
        "lat": 42.50779,
        "lng": 1.52109,
        "date": "21Jan2018"
      },
      {
        "name": "Naturlandia, Andorra",
        "country": "Andorra",
        "lat": 42.44118,
        "lng": 1.50071,
        "date": "21Jan2018"
      },
      {
        "name": "Soldeu, Andorra",
        "country": "Andorra",
        "lat": 42.57689,
        "lng": 1.66827,
        "date": "24Jan2018"
      },
      {
        "name": "Carcassonne, France",
        "country": "France",
        "lat": 43.21649,
        "lng": 2.34863,
        "date": "26Jan2018"
      },
      {
        "name": "Narbonne, France",
        "country": "France",
        "lat": 43.18396,
        "lng": 3.00141,
        "date": "26Jan2018"
      },
      {
        "name": "Perpignan, France",
        "country": "France",
        "lat": 42.69764,
        "lng": 2.89541,
        "date": "26Jan2018"
      },
      {
        "name": "Girona, Spain",
        "country": "Spain",
        "lat": 41.98311,
        "lng": 2.82493,
        "date": "26Jan2018"
      },
      {
        "name": "Barcelona, Spain",
        "country": "Spain",
        "lat": 41.38533,
        "lng": 2.17282,
        "date": "31Jan2018"
      },
      {
        "name": "Casablanca, Morocco",
        "country": "Morocco",
        "lat": 33.58831,
        "lng": -7.61138,
        "date": "31Jan2018"
      },
      {
        "name": "Marrakesh, Morocco",
        "country": "Morocco",
        "lat": 31.63416,
        "lng": -7.99994,
        "date": "02Feb2018"
      },
      {
        "name": "Casablanca, Morocco",
        "country": "Morocco",
        "lat": 33.58831,
        "lng": -7.61138,
        "date": "03Feb2018"
      }
    ],
    "date_from": "17 Jan 2018",
    "date_to": "04 Feb 2018",
    "days": 19
  },
  {
    "id": 11,
    "name_en": "Eastern Europe 2017",
    "name_pt": "Europa do Leste 2017",
    "name_es": "Europa Oriental 2017",
    "year": 2017,
    "color": "#4224dc",
    "region": "Europe",
    "stops": [
      {
        "name": "Dubai, United Arab Emirates",
        "country": "United Arab Emirates",
        "lat": 25.07725,
        "lng": 55.30927,
        "date": "11Jul2017"
      },
      {
        "name": "Moscow, Russia",
        "country": "Russia",
        "lat": 55.75222,
        "lng": 37.61556,
        "date": "13Jul2017"
      },
      {
        "name": "Minsk, Belarus",
        "country": "Belarus",
        "lat": 53.9,
        "lng": 27.56667,
        "date": "14Jul2017"
      },
      {
        "name": "Vilnius, Lithuania",
        "country": "Lithuania",
        "lat": 54.68916,
        "lng": 25.2798,
        "date": "15Jul2017"
      },
      {
        "name": "Riga, Latvia",
        "country": "Latvia",
        "lat": 56.946,
        "lng": 24.10589,
        "date": "16Jul2017"
      },
      {
        "name": "Tallinn, Estonia",
        "country": "Estonia",
        "lat": 59.43696,
        "lng": 24.75353,
        "date": "17Jul2017"
      },
      {
        "name": "Helsinki, Finland",
        "country": "Finland",
        "lat": 60.16952,
        "lng": 24.93545,
        "date": "18Jul2017"
      },
      {
        "name": "Saint Petersburg, Russia",
        "country": "Russia",
        "lat": 59.9385,
        "lng": 30.31463,
        "date": "22Jul2017"
      },
      {
        "name": "Petergof, Russia",
        "country": "Russia",
        "lat": 59.88372,
        "lng": 29.88746,
        "date": "21Jul2017"
      },
      {
        "name": "Saint Petersburg, Russia",
        "country": "Russia",
        "lat": 59.9385,
        "lng": 30.31463,
        "date": "22Jul2017"
      },
      {
        "name": "Moscow, Russia",
        "country": "Russia",
        "lat": 55.75222,
        "lng": 37.61556,
        "date": "25Jul2017"
      },
      {
        "name": "Dubai, United Arab Emirates",
        "country": "United Arab Emirates",
        "lat": 25.07725,
        "lng": 55.30927,
        "date": "26Jul2017"
      }
    ],
    "date_from": "09 Jul 2017",
    "date_to": "26 Jul 2017",
    "days": 18
  },
  {
    "id": 12,
    "name_en": "Southeast Asia 2016",
    "name_pt": "Sudeste da Ásia 2016",
    "name_es": "Sudeste Asiático 2016",
    "year": 2016,
    "color": "#539eff",
    "region": "Asia",
    "stops": [
      {
        "name": "Doha, Qatar",
        "country": "Qatar",
        "lat": 25.28545,
        "lng": 51.53096,
        "date": "07Dec2016"
      },
      {
        "name": "Bangkok, Thailand",
        "country": "Thailand",
        "lat": 13.75398,
        "lng": 100.5014,
        "date": "10Dec2016"
      },
      {
        "name": "Chiang Mai, Thailand",
        "country": "Thailand",
        "lat": 18.79038,
        "lng": 98.98468,
        "date": "12Dec2016"
      },
      {
        "name": "Hong Kong",
        "country": "",
        "lat": 22.3031,
        "lng": 114.1773,
        "date": "15Dec2016"
      },
      {
        "name": "Macau",
        "country": "",
        "lat": 22.20056,
        "lng": 113.5461,
        "date": "15Dec2016"
      },
      {
        "name": "Hanoi, Vietnam",
        "country": "Vietnam",
        "lat": 21.0341,
        "lng": 105.8372,
        "date": "16Dec2016"
      },
      {
        "name": "Hạ Long, Vietnam",
        "country": "Vietnam",
        "lat": 20.95045,
        "lng": 107.0734,
        "date": "17Dec2016"
      },
      {
        "name": "Da Nang, Vietnam",
        "country": "Vietnam",
        "lat": 16.06778,
        "lng": 108.2208,
        "date": "19Dec2016"
      },
      {
        "name": "Huế, Vietnam",
        "country": "Vietnam",
        "lat": 16.4619,
        "lng": 107.5955,
        "date": "20Dec2016"
      },
      {
        "name": "Nha Trang, Vietnam",
        "country": "Vietnam",
        "lat": 12.24507,
        "lng": 109.1943,
        "date": "21Dec2016"
      },
      {
        "name": "Ho Chi Minh, Vietnam",
        "country": "Vietnam",
        "lat": 10.758,
        "lng": 106.6534,
        "date": "25Dec2016"
      },
      {
        "name": "Phnom Penh, Cambodia",
        "country": "Cambodia",
        "lat": 11.56245,
        "lng": 104.916,
        "date": "27Dec2016"
      },
      {
        "name": "Siem Reap, Cambodia",
        "country": "Cambodia",
        "lat": 13.36179,
        "lng": 103.8606,
        "date": "29Dec2016"
      },
      {
        "name": "Kuala Lumpur, Malaysia",
        "country": "Malaysia",
        "lat": 3.145,
        "lng": 101.69,
        "date": "01Jan2017"
      },
      {
        "name": "Phuket, Thailand",
        "country": "Thailand",
        "lat": 7.87699,
        "lng": 98.38664,
        "date": "02Jan2017"
      },
      {
        "name": "Ko Phi Phi, Thailand",
        "country": "Thailand",
        "lat": 7.75011,
        "lng": 98.77842,
        "date": "03Jan2017"
      },
      {
        "name": "Krabi, Thailand",
        "country": "Thailand",
        "lat": 8.07257,
        "lng": 98.91052,
        "date": "04Jan2017"
      },
      {
        "name": "Kuala Lumpur, Malaysia",
        "country": "Malaysia",
        "lat": 3.145,
        "lng": 101.69,
        "date": "04Jan2017"
      },
      {
        "name": "Jakarta, Indonesia",
        "country": "Indonesia",
        "lat": -6.21454,
        "lng": 106.8451,
        "date": "07Jan2017"
      },
      {
        "name": "Yogyakarta, Indonesia",
        "country": "Indonesia",
        "lat": -7.80139,
        "lng": 110.3647,
        "date": "08Jan2017"
      },
      {
        "name": "Bali, Indonesia",
        "country": "Indonesia",
        "lat": -8.5,
        "lng": 115.0,
        "date": "11Jan2017"
      },
      {
        "name": "Singapore",
        "country": "",
        "lat": 1.28974,
        "lng": 103.8501,
        "date": "14Jan2017"
      },
      {
        "name": "Bangkok, Thailand",
        "country": "Thailand",
        "lat": 13.75398,
        "lng": 100.5014,
        "date": "15Jan2017"
      },
      {
        "name": "Doha, Qatar",
        "country": "Qatar",
        "lat": 25.28545,
        "lng": 51.53096,
        "date": "16Jan2017"
      }
    ],
    "date_from": "06 Dec 2016",
    "date_to": "16 Jan 2017",
    "days": 42
  },
  {
    "id": 13,
    "name_en": "Mediterranean 2015",
    "name_pt": "Mediterrâneo 2015",
    "name_es": "Mediterráneo 2015",
    "year": 2015,
    "color": "#2ed51d",
    "region": "Europe",
    "stops": [
      {
        "name": "Madrid, Spain",
        "country": "Spain",
        "lat": 40.4165,
        "lng": -3.70256,
        "date": "07Dec2015"
      },
      {
        "name": "Rome, Italy",
        "country": "Italy",
        "lat": 41.90133,
        "lng": 12.5009,
        "date": "07Dec2015"
      },
      {
        "name": "Palermo, Italy",
        "country": "Italy",
        "lat": 38.13205,
        "lng": 13.33561,
        "date": "09Dec2015"
      },
      {
        "name": "Monreale, Italy",
        "country": "Italy",
        "lat": 38.08125,
        "lng": 13.28947,
        "date": "08Dec2015"
      },
      {
        "name": "Trapani, Italy",
        "country": "Italy",
        "lat": 38.0176,
        "lng": 12.53617,
        "date": "09Dec2015"
      },
      {
        "name": "Erice, Italy",
        "country": "Italy",
        "lat": 38.03785,
        "lng": 12.58778,
        "date": "09Dec2015"
      },
      {
        "name": "Agrigento, Italy",
        "country": "Italy",
        "lat": 37.31065,
        "lng": 13.57661,
        "date": "10Dec2015"
      },
      {
        "name": "Catania, Italy",
        "country": "Italy",
        "lat": 37.49223,
        "lng": 15.07041,
        "date": "11Dec2015"
      },
      {
        "name": "Nicolosi, Italy",
        "country": "Italy",
        "lat": 37.61471,
        "lng": 15.02635,
        "date": "11Dec2015"
      },
      {
        "name": "Syracuse, Italy",
        "country": "Italy",
        "lat": 37.07542,
        "lng": 15.28664,
        "date": "13Dec2015"
      },
      {
        "name": "Noto, Italy",
        "country": "Italy",
        "lat": 36.89244,
        "lng": 15.06977,
        "date": "12Dec2015"
      },
      {
        "name": "Catania, Italy",
        "country": "Italy",
        "lat": 37.49223,
        "lng": 15.07041,
        "date": "14Dec2015"
      },
      {
        "name": "Taormina, Italy",
        "country": "Italy",
        "lat": 37.85179,
        "lng": 15.28565,
        "date": "15Dec2015"
      },
      {
        "name": "Salerno, Italy",
        "country": "Italy",
        "lat": 40.67545,
        "lng": 14.79328,
        "date": "15Dec2015"
      },
      {
        "name": "Cava de' Tirreni, Italy",
        "country": "Italy",
        "lat": 40.69954,
        "lng": 14.70773,
        "date": "16Dec2015"
      },
      {
        "name": "Vietri sul Mare, Italy",
        "country": "Italy",
        "lat": 40.67155,
        "lng": 14.7286,
        "date": "16Dec2015"
      },
      {
        "name": "Maiori, Italy",
        "country": "Italy",
        "lat": 40.64891,
        "lng": 14.64014,
        "date": "16Dec2015"
      },
      {
        "name": "Minori, Italy",
        "country": "Italy",
        "lat": 40.65271,
        "lng": 14.62494,
        "date": "16Dec2015"
      },
      {
        "name": "Ravello, Italy",
        "country": "Italy",
        "lat": 40.64966,
        "lng": 14.61228,
        "date": "16Dec2015"
      },
      {
        "name": "Amalfi, Italy",
        "country": "Italy",
        "lat": 40.63367,
        "lng": 14.60261,
        "date": "16Dec2015"
      },
      {
        "name": "Praiano, Italy",
        "country": "Italy",
        "lat": 40.61111,
        "lng": 14.53134,
        "date": "16Dec2015"
      },
      {
        "name": "Positano, Italy",
        "country": "Italy",
        "lat": 40.62866,
        "lng": 14.48549,
        "date": "16Dec2015"
      },
      {
        "name": "Sorrento, Italy",
        "country": "Italy",
        "lat": 40.6249,
        "lng": 14.37484,
        "date": "16Dec2015"
      },
      {
        "name": "Cava de' Tirreni, Italy",
        "country": "Italy",
        "lat": 40.69954,
        "lng": 14.70773,
        "date": "17Dec2015"
      },
      {
        "name": "Pompei, Italy",
        "country": "Italy",
        "lat": 40.74574,
        "lng": 14.49698,
        "date": "18Dec2015"
      },
      {
        "name": "Torre Annunziata, Italy",
        "country": "Italy",
        "lat": 40.75337,
        "lng": 14.45251,
        "date": "17Jan2016"
      },
      {
        "name": "Torre del Greco, Italy",
        "country": "Italy",
        "lat": 40.78931,
        "lng": 14.36806,
        "date": "17Jan2016"
      },
      {
        "name": "Vesuvius, Italy",
        "country": "Italy",
        "lat": 40.82146,
        "lng": 14.42582,
        "date": "18Dec2015"
      },
      {
        "name": "Herculaneum, Italy",
        "country": "Italy",
        "lat": 40.80466,
        "lng": 14.34733,
        "date": "18Dec2015"
      },
      {
        "name": "Naples, Italy",
        "country": "Italy",
        "lat": 40.85216,
        "lng": 14.26811,
        "date": "20Dec2015"
      },
      {
        "name": "Capri, Italy",
        "country": "Italy",
        "lat": 40.5493,
        "lng": 14.24353,
        "date": "20Dec2015"
      },
      {
        "name": "Naples, Italy",
        "country": "Italy",
        "lat": 40.84,
        "lng": 14.25287,
        "date": "21Dec2015"
      },
      {
        "name": "Athens, Greece",
        "country": "Greece",
        "lat": 37.98376,
        "lng": 23.72784,
        "date": "23Dec2015"
      },
      {
        "name": "Fira, Greece",
        "country": "Greece",
        "lat": 36.41492,
        "lng": 25.43245,
        "date": "24Dec2015"
      },
      {
        "name": "Athens, Greece",
        "country": "Greece",
        "lat": 37.98376,
        "lng": 23.72784,
        "date": "25Dec2015"
      },
      {
        "name": "Corinth, Greece",
        "country": "Greece",
        "lat": 37.94007,
        "lng": 22.9513,
        "date": "25Dec2015"
      },
      {
        "name": "Mikínai, Greece",
        "country": "Greece",
        "lat": 37.72011,
        "lng": 22.74547,
        "date": "25Dec2015"
      },
      {
        "name": "Árgos, Greece",
        "country": "Greece",
        "lat": 37.63333,
        "lng": 22.73333,
        "date": "25Dec2015"
      },
      {
        "name": "Náfplio, Greece",
        "country": "Greece",
        "lat": 37.56863,
        "lng": 22.80691,
        "date": "25Dec2015"
      },
      {
        "name": "Epidaurus, Greece",
        "country": "Greece",
        "lat": 37.59669,
        "lng": 23.07524,
        "date": "25Dec2015"
      },
      {
        "name": "Kalampáka, Greece",
        "country": "Greece",
        "lat": 39.70702,
        "lng": 21.62794,
        "date": "26Dec2015"
      },
      {
        "name": "Delphi, Central Greece",
        "country": "Central Greece",
        "lat": 38.47891,
        "lng": 22.49434,
        "date": "27Dec2015"
      },
      {
        "name": "Eleusis, Greece",
        "country": "Greece",
        "lat": 38.04135,
        "lng": 23.54295,
        "date": "27Dec2015"
      },
      {
        "name": "Athens, Greece",
        "country": "Greece",
        "lat": 37.98376,
        "lng": 23.72784,
        "date": "29Dec2015"
      },
      {
        "name": "Piraeus, Greece",
        "country": "Greece",
        "lat": 37.94203,
        "lng": 23.64619,
        "date": "27Dec2015"
      },
      {
        "name": "Chania, Greece",
        "country": "Greece",
        "lat": 35.51124,
        "lng": 24.02921,
        "date": "31Dec2015"
      },
      {
        "name": "Rethymno, Greece",
        "country": "Greece",
        "lat": 35.36555,
        "lng": 24.48232,
        "date": "29Dec2015"
      },
      {
        "name": "Heraklion, Greece",
        "country": "Greece",
        "lat": 35.32787,
        "lng": 25.14341,
        "date": "30Dec2015"
      },
      {
        "name": "Chania, Greece",
        "country": "Greece",
        "lat": 35.51124,
        "lng": 24.02921,
        "date": "31Dec2015"
      },
      {
        "name": "Athens, Greece",
        "country": "Greece",
        "lat": 37.98376,
        "lng": 23.72784,
        "date": "31Dec2015"
      },
      {
        "name": "Tel Aviv, Israel",
        "country": "Israel",
        "lat": 32.08088,
        "lng": 34.78057,
        "date": "31Dec2015"
      },
      {
        "name": "Haifa, Israel",
        "country": "Israel",
        "lat": 32.81841,
        "lng": 34.9885,
        "date": "02Jan2016"
      },
      {
        "name": "Acre, Israel",
        "country": "Israel",
        "lat": 32.92814,
        "lng": 35.07647,
        "date": "01Jan2016"
      },
      {
        "name": "Domus Galilaeae, Israel",
        "country": "Israel",
        "lat": 32.90216,
        "lng": 35.55178,
        "date": "01Jan2016"
      },
      {
        "name": "Haifa, Israel",
        "country": "Israel",
        "lat": 32.81841,
        "lng": 34.9885,
        "date": "02Dec2016"
      },
      {
        "name": "Tel Aviv, Israel",
        "country": "Israel",
        "lat": 32.08088,
        "lng": 34.78057,
        "date": "02Jan2016"
      },
      {
        "name": "Jaffa, Israel",
        "country": "Israel",
        "lat": 32.05043,
        "lng": 34.75224,
        "date": "02Jan2016"
      },
      {
        "name": "Jerusalem, Israel",
        "country": "Israel",
        "lat": 31.76904,
        "lng": 35.21633,
        "date": "06Dec2016"
      },
      {
        "name": "Bethlehem, Palestine",
        "country": "Palestine",
        "lat": 31.70487,
        "lng": 35.20376,
        "date": "05Jan2016"
      },
      {
        "name": "Qumran, Palestine",
        "country": "Palestine",
        "lat": 31.74083,
        "lng": 35.45861,
        "date": "06Jan2016"
      },
      {
        "name": "Ein Gedi, Israel",
        "country": "Israel",
        "lat": 31.45239,
        "lng": 35.38482,
        "date": "06Jan2016"
      },
      {
        "name": "Masada, Israel",
        "country": "Israel",
        "lat": 31.31556,
        "lng": 35.35389,
        "date": "06Jan2016"
      },
      {
        "name": "Ein Bokek, Israel",
        "country": "Israel",
        "lat": 31.20138,
        "lng": 35.36388,
        "date": "06Jan2016"
      },
      {
        "name": "Eilat, Israel",
        "country": "Israel",
        "lat": 29.55805,
        "lng": 34.94821,
        "date": "10Jan2016"
      },
      {
        "name": "Aqaba, Jordan",
        "country": "Jordan",
        "lat": 29.52667,
        "lng": 35.00778,
        "date": "08Jan2016"
      },
      {
        "name": "Petra, Jordan",
        "country": "Jordan",
        "lat": 30.3274,
        "lng": 35.4464,
        "date": "08Jan2016"
      },
      {
        "name": "Wadi Rum, Jordan",
        "country": "Jordan",
        "lat": 29.50844,
        "lng": 35.33622,
        "date": "09Jan2016"
      },
      {
        "name": "Eilat, Israel",
        "country": "Israel",
        "lat": 29.55805,
        "lng": 34.94821,
        "date": "10Jan2016"
      },
      {
        "name": "Taba, Egypt",
        "country": "Egypt",
        "lat": 29.49282,
        "lng": 34.89236,
        "date": "10Jan2016"
      },
      {
        "name": "Dahab, Egypt",
        "country": "Egypt",
        "lat": 28.49636,
        "lng": 34.51456,
        "date": "10Jan2016"
      },
      {
        "name": "Sharm el Sheikh, Egypt",
        "country": "Egypt",
        "lat": 27.86691,
        "lng": 34.30145,
        "date": "11Dec2016"
      },
      {
        "name": "Cairo, Egypt",
        "country": "Egypt",
        "lat": 30.06263,
        "lng": 31.24967,
        "date": "13Jan2016"
      },
      {
        "name": "Pyramid of Djoser, Egypt",
        "country": "Egypt",
        "lat": 29.87126,
        "lng": 31.21641,
        "date": "12Jan2016"
      },
      {
        "name": "Pyramids of Giza, Egypt",
        "country": "Egypt",
        "lat": 29.97766,
        "lng": 31.13275,
        "date": "12Jan2016"
      },
      {
        "name": "Luxor, Egypt",
        "country": "Egypt",
        "lat": 25.69893,
        "lng": 32.6421,
        "date": "14Jan2016"
      },
      {
        "name": "Aswan, Egypt",
        "country": "Egypt",
        "lat": 24.09082,
        "lng": 32.89942,
        "date": "16Jan2016"
      },
      {
        "name": "Abu Simbel, Egypt",
        "country": "Egypt",
        "lat": 22.36667,
        "lng": 31.63333,
        "date": "15Jan2016"
      },
      {
        "name": "Aswan Dam, Egypt",
        "country": "Egypt",
        "lat": 23.97056,
        "lng": 32.87778,
        "date": "15Jan2016"
      },
      {
        "name": "Philae (Island), Egypt",
        "country": "Egypt",
        "lat": 24.01377,
        "lng": 32.87749,
        "date": "15Jan2016"
      },
      {
        "name": "Cairo, Egypt",
        "country": "Egypt",
        "lat": 30.06263,
        "lng": 31.24967,
        "date": "20Jan2016"
      },
      {
        "name": "Alexandria, Egypt",
        "country": "Egypt",
        "lat": 31.20176,
        "lng": 29.91582,
        "date": "18Jan2016"
      },
      {
        "name": "Cairo, Egypt",
        "country": "Egypt",
        "lat": 30.06263,
        "lng": 31.24967,
        "date": "21Jan2016"
      },
      {
        "name": "Rome, Italy",
        "country": "Italy",
        "lat": 41.89866,
        "lng": 12.47687,
        "date": "23Jan2016"
      },
      {
        "name": "Madrid, Spain",
        "country": "Spain",
        "lat": 40.4165,
        "lng": -3.70256,
        "date": "23Jan2016"
      }
    ],
    "date_from": "06 Dec 2015",
    "date_to": "24 Jan 2016",
    "days": 50
  },
  {
    "id": 14,
    "name_en": "Rivieras 2016",
    "name_pt": "Rivieras 2016",
    "name_es": "Rivieras 2016",
    "year": 2016,
    "color": "#c7cb0f",
    "region": "Europe",
    "stops": [
      {
        "name": "Paris, France",
        "country": "France",
        "lat": 48.85666,
        "lng": 2.35204,
        "date": "16Jul2016"
      },
      {
        "name": "Marseille, France",
        "country": "France",
        "lat": 43.29695,
        "lng": 5.38107,
        "date": "17Jul2016"
      },
      {
        "name": "Arles, France",
        "country": "France",
        "lat": 43.67681,
        "lng": 4.63031,
        "date": "17Jul2016"
      },
      {
        "name": "Les Baux-de-Provence, France",
        "country": "France",
        "lat": 43.74364,
        "lng": 4.79513,
        "date": "17Jul2016"
      },
      {
        "name": "Avignon, France",
        "country": "France",
        "lat": 43.94834,
        "lng": 4.80892,
        "date": "18Jul2016"
      },
      {
        "name": "Gordes, France",
        "country": "France",
        "lat": 43.91106,
        "lng": 5.2002,
        "date": "18Jul2016"
      },
      {
        "name": "Sénanque Abbey, France",
        "country": "France",
        "lat": 43.92833,
        "lng": 5.18694,
        "date": "18Jul2016"
      },
      {
        "name": "Roussillon, France",
        "country": "France",
        "lat": 43.90239,
        "lng": 5.29274,
        "date": "18Jul2016"
      },
      {
        "name": "Manosque, France",
        "country": "France",
        "lat": 43.82883,
        "lng": 5.78688,
        "date": "18Jul2016"
      },
      {
        "name": "Aix-en-Provence, France",
        "country": "France",
        "lat": 43.5283,
        "lng": 5.44973,
        "date": "19Jul2016"
      },
      {
        "name": "Marseille, France",
        "country": "France",
        "lat": 43.29695,
        "lng": 5.38107,
        "date": "19Jul2016"
      },
      {
        "name": "Cassis, France",
        "country": "France",
        "lat": 43.21404,
        "lng": 5.53963,
        "date": "19Jul2016"
      },
      {
        "name": "La Ciotat, France",
        "country": "France",
        "lat": 43.17476,
        "lng": 5.60449,
        "date": "19Jul2016"
      },
      {
        "name": "Toulon, France",
        "country": "France",
        "lat": 43.12442,
        "lng": 5.92836,
        "date": "19Jul2016"
      },
      {
        "name": "Cogolin, France",
        "country": "France",
        "lat": 43.25,
        "lng": 6.53659,
        "date": "20Jul2016"
      },
      {
        "name": "Saint-Tropez, France",
        "country": "France",
        "lat": 43.27272,
        "lng": 6.64052,
        "date": "20Jul2016"
      },
      {
        "name": "Sainte-Maxime, France",
        "country": "France",
        "lat": 43.30871,
        "lng": 6.63771,
        "date": "20Jul2016"
      },
      {
        "name": "Saint-Raphaël, France",
        "country": "France",
        "lat": 43.42332,
        "lng": 6.7735,
        "date": "20Jul2016"
      },
      {
        "name": "Agay, France",
        "country": "France",
        "lat": 43.43167,
        "lng": 6.85667,
        "date": "20Jul2016"
      },
      {
        "name": "Cannes, France",
        "country": "France",
        "lat": 43.55135,
        "lng": 7.01275,
        "date": "21Jul2016"
      },
      {
        "name": "Cap d'Antibes, France",
        "country": "France",
        "lat": 43.55483,
        "lng": 7.1284,
        "date": "21Jul2016"
      },
      {
        "name": "Grasse, France",
        "country": "France",
        "lat": 43.65783,
        "lng": 6.92537,
        "date": "21Jul2016"
      },
      {
        "name": "Antibes, France",
        "country": "France",
        "lat": 43.58579,
        "lng": 7.10831,
        "date": "21Jul2016"
      },
      {
        "name": "Nice, France",
        "country": "France",
        "lat": 43.70313,
        "lng": 7.26608,
        "date": "23Jul2016"
      },
      {
        "name": "Saint-Jean-Cap-Ferrat, France",
        "country": "France",
        "lat": 43.68996,
        "lng": 7.33274,
        "date": "23Jul2016"
      },
      {
        "name": "Èze, France",
        "country": "France",
        "lat": 43.72889,
        "lng": 7.36207,
        "date": "23Jul2016"
      },
      {
        "name": "La Turbie, France",
        "country": "France",
        "lat": 43.7453,
        "lng": 7.40113,
        "date": "23Jul2016"
      },
      {
        "name": "Monaco",
        "country": "",
        "lat": 43.73333,
        "lng": 7.41667,
        "date": "25Jul2016"
      },
      {
        "name": "Sanremo, Italy",
        "country": "Italy",
        "lat": 43.81725,
        "lng": 7.7772,
        "date": "25Jul2016"
      },
      {
        "name": "Menton, France",
        "country": "France",
        "lat": 43.77649,
        "lng": 7.50435,
        "date": "25Jul2016"
      },
      {
        "name": "Sanremo, Italy",
        "country": "Italy",
        "lat": 43.81725,
        "lng": 7.7772,
        "date": "26Jul2016"
      },
      {
        "name": "Imperia, Italy",
        "country": "Italy",
        "lat": 43.88917,
        "lng": 8.03933,
        "date": "26Jul2016"
      },
      {
        "name": "San Bartolomeo al Mare, Italy",
        "country": "Italy",
        "lat": 43.92292,
        "lng": 8.10115,
        "date": "26Jul2016"
      },
      {
        "name": "Albenga, Italy",
        "country": "Italy",
        "lat": 44.04997,
        "lng": 8.21829,
        "date": "26Jul2016"
      },
      {
        "name": "Savona, Italy",
        "country": "Italy",
        "lat": 44.30905,
        "lng": 8.47715,
        "date": "26Jul2016"
      },
      {
        "name": "Genoa, Italy",
        "country": "Italy",
        "lat": 44.40478,
        "lng": 8.94439,
        "date": "27Jul2016"
      },
      {
        "name": "Rapallo, Italy",
        "country": "Italy",
        "lat": 44.3496,
        "lng": 9.22796,
        "date": "27Jul2016"
      },
      {
        "name": "Riomaggiore, Italy",
        "country": "Italy",
        "lat": 44.09897,
        "lng": 9.73867,
        "date": "27Jul2016"
      },
      {
        "name": "Vernazza, Italy",
        "country": "Italy",
        "lat": 44.13494,
        "lng": 9.68278,
        "date": "27Jul2016"
      },
      {
        "name": "Monterosso al Mare, Italy",
        "country": "Italy",
        "lat": 44.14652,
        "lng": 9.65556,
        "date": "27Jul2016"
      },
      {
        "name": "Sestri Levante, Italy",
        "country": "Italy",
        "lat": 44.27317,
        "lng": 9.39683,
        "date": "27Jul2016"
      },
      {
        "name": "Santa Margherita Ligure, Italy",
        "country": "Italy",
        "lat": 44.33398,
        "lng": 9.21113,
        "date": "27Jul2016"
      },
      {
        "name": "Portofino, Italy",
        "country": "Italy",
        "lat": 44.30367,
        "lng": 9.20934,
        "date": "27Jul2016"
      },
      {
        "name": "Rapallo, Italy",
        "country": "Italy",
        "lat": 44.3496,
        "lng": 9.22796,
        "date": "27Jul2016"
      },
      {
        "name": "Genoa, Italy",
        "country": "Italy",
        "lat": 44.40478,
        "lng": 8.94439,
        "date": "27Jul2016"
      },
      {
        "name": "Rome, Italy",
        "country": "Italy",
        "lat": 41.89866,
        "lng": 12.47687,
        "date": "27Jul2016"
      }
    ],
    "date_from": "14 Jul 2016",
    "date_to": "28 Jul 2016",
    "days": 15
  },
  {
    "id": 15,
    "name_en": "India 2014",
    "name_pt": "Índia 2014",
    "name_es": "India 2014",
    "year": 2014,
    "color": "#c7cb0f",
    "region": "Asia",
    "stops": [
      {
        "name": "Abu Dhabi, United Arab Emirates",
        "country": "United Arab Emirates",
        "lat": 24.45118,
        "lng": 54.39696,
        "date": "03May2014"
      },
      {
        "name": "Mumbai, India",
        "country": "India",
        "lat": 19.00263,
        "lng": 72.84456,
        "date": "06May2014"
      },
      {
        "name": "Ahmedabad, India",
        "country": "India",
        "lat": 23.02579,
        "lng": 72.58727,
        "date": "07May2014"
      },
      {
        "name": "Udaipur, India",
        "country": "India",
        "lat": 24.58163,
        "lng": 73.68771,
        "date": "09May2014"
      },
      {
        "name": "Ranakpur Jain temple, India",
        "country": "India",
        "lat": 25.11575,
        "lng": 73.47283,
        "date": "09May2014"
      },
      {
        "name": "Kumbhalgarh Fort Resort, India",
        "country": "India",
        "lat": 25.1209,
        "lng": 73.58278,
        "date": "09May2014"
      },
      {
        "name": "Fālna, India",
        "country": "India",
        "lat": 25.23355,
        "lng": 73.23544,
        "date": "09May2014"
      },